Address of property,Postcode,Locality,Tenancy end date,Let Type,Latitude,Longitude,Major or Minor void?
"1 1c Worcester Street, Gloucester",GL1 3AJ,Glouc,2-Jun-22,Relet,51.867533,-2.242997,Major
"1 Adonis Blue Way, Southstoke",BA2 2FZ,WOE,10-Jun-24,Relet,51.350979,-2.378807,N/A
1 Andrew Evans House,WV16 4HQ,S&M,26-Feb-24,Relet,52.539527,-2.423317,Minor
"1 Badminton Walk, Downend",BS16 6BG,WOE,21-Jul-24,Relet,51.492992,-2.501686,Minor
1 Barclay Gardens,TF2 8AB,S&M,14-Jul-24,Relet,52.717735,-2.444553,Minor
1 Beatrice Gardens,SY13 1NW,S&M,6-Feb-25,Relet,52.97005,-2.677238,Minor
"1 Beck House, Derwent Close, Patchway",BS34 5JD,WOE,28-Apr-24,Relet,51.534061,-2.571471,Major
"1 Bee Orchid Close, Whitchurch",BS14 0UJ,WOE,24-Feb-25,Relet,51.411046,-2.5914,N/A
"1 Bethesda apartments, 60 East Street",BS3 1GG,WOE,29-Aug-24,Relet,51.442184,-2.596855,N/A
"1 Birch Court, Woodfield Close, Four Oaks",B74 2TU,Central,30-Aug-24,Relet,52.578196,-1.828067,Major
"1 Blakeley Court, Churchdown",GL3 1HU,Glouc,6-Jan-25,Relet,51.886106,-2.190355,Minor
"1 Bredon Close, Kingswood",BS15 9PG,WOE,31-Mar-24,Relet,51.456006,-2.494371,Major
1 Broadheath Close,B97 6SW,S&M,18-Sep-24,Relet,52.312128,-1.957799,Major
"1 Bromford Close, Handsworth Wood",B20 2RS,Central,16-Apr-24,Relet,52.512562,-1.923054,Major
"1 Bull Yard, Southam",CV47 1TB,Central,18-Aug-24,Relet,52.252513,-1.38695,Major
"1 Charfield Green, Kingswood",BS15 4LY,WOE,15-Sep-24,Relet,51.46134,-2.487505,Minor
"1 Charfield Green, Wotton Under Edge",GL12 8SZ,WOE,14-Jan-24,Relet,51.62585,-2.398792,Major
"1 Coleridge Close, SUA",CV37 7HF,Central,17-May-24,Relet,52.180539,-1.688837,Minor
1 Coleridge Drive,WV6 7QE,S&M,5-Feb-25,Relet,52.596396,-2.201011,Minor
1 Cottage Lane,WS7 4XZ,S&M,14-Oct-24,Relet,52.672532,-1.93255,Minor
"1 Cotteswold Terrace, Lechlade",GL7 3FQ,Glouc,13-Dec-24,Relet,51.699255,-1.691872,Minor
"1 Daldry Gardens, Olveston",BS35 4BP,WOE,12-May-24,Relet,51.582343,-2.574095,Major
1 Dawes Close,WS15 4BE,S&M,4-May-24,Relet,52.741185,-1.884898,Major
"1 Deopham Green, Kingsway",GL2 2HX,Glouc,8-Sep-24,Relet,51.817454,-2.267187,Minor
1 Downfield House,GL51 4SY,Glouc,5-May-24,Relet,51.865944,-2.120129,Minor
1 Draycott Close,B97 6SP,S&M,6-Feb-25,Relet,52.312415,-1.957226,Minor
1 Eyton View,TF1 3JW,S&M,1-Oct-24,Relet,52.713072,-2.52102,Minor
"1 Fountain Cottages, Gretton",GL54 5EP,Glouc,12-Feb-25,Relet,51.971755,-1.984398,Minor
"1 Gardeners Rest, Stroud",GL5 4QU,Glouc,26-May-24,Relet,51.749703,-2.24538,Minor
"1 Germander Drive, Walsall",WS5 4SH,Central,20-Jun-24,Relet,52.553854,-1.965017,Minor
"1 Golding Close, Almondsbury",BS10 7JX,WOE,14-Nov-24,Relet,51.516738,-2.623669,N/A
"1 Grace Court  Dial Lane, Downend",BS16 5UP,WOE,10-Nov-24,Relet,51.487836,-2.506641,N/A
1 Graham Court Oldbury road,GL20 5NZ,Glouc,29-Jul-24,Relet,51.996119,-2.154064,Minor
"1 Hampton Close, Cadbury Heath",BS30 8EY,WOE,5-Sep-24,Relet,51.446902,-2.486302,N/A
"1 Harebell Road, Emersons Green",BS16 7LY,WOE,24-Apr-24,Relet,51.497102,-2.464435,Minor
"1 Hawthorne Gardens, Broad Street, Staple Hill",BS16 5PL,WOE,2-Mar-25,Relet,51.480591,-2.495603,Minor
"1 Hemmings Close, Wednesfield Road",WV10 0QZ,Central,9-Jun-24,Relet,52.591096,-2.112231,Major
1 Holinwell Place,B31 5GT,Central,21-Apr-24,New Build,52.406771,-1.989894,N/A
"1 Howland Close, Yate",BS37 7HX,WOE,16-May-24,Relet,51.563612,-2.414287,N/A
"1 John Lambe House, Shurdington",GL51 4SD,Glouc,19-May-24,Relet,51.865394,-2.119802,minor
"1 Jubliee Crescent, Cradley Heath",B64 7DJ,Central,28-Mar-24,New build,52.468987,-2.086271,N/A
"1 Kerry Croft Close, Redditch",B97 5GW,S&M,25-Feb-24,Relet,52.275207,-1.941492,Minor
"1 Laburnham Bungalows, Hinton, Chippenham",SN14 8HG,WOE,7-Jan-24,Relet,51.489509,-2.386263,Major
"1 Little Bristol, Charfield",GL12 8TR,WOE,19-May-24,Relet,51.625503,-2.397821,Major
1 Lullington Road,B79 3QD,S&M,31-Aug-24,Relet,52.69724321,-1.625905973,Minor
"1 Maiden Croft Cottages, Kempsford",GL7 4EW,Glouc,10-Aug-24,Relet,51.669469,-1.769404,Major
"1 Martins Close, Hanham",BS15 3EH,WOE,31-Aug-24,Relet,51.446673,-2.517222,Minor
"1 Moravian Court, Kingswood",BS15 8LR,WOE,2-Jun-24,Relet,51.461809,-2.508253,minor
1 Moseley Court,WV13 3RB,Central,8-Nov-24,Relet,52.583644,-2.077942,Minor
1 Mozart Court,WS11 7WR,S&M,1-Dec-24,Relet,52.694153,-2.000046,Major
"1 Neston Close, Swindon",SN3 6GH,WOE,17-Apr-24,New Build,51.52819,-1.727553,N/A
"1 Norris Mews, Long Buckby",NN6 7WF,Central,3-Jul-24,Relet,52.297693,-1.089367,Minor
"1 Oakey Place, Winchcombe",GL54 5RE,Glouc,12-Jul-24,Relet,51.953789,-1.972699,Minor
1 Oakmount Bromford Close,B23 6NU,Central,10-Oct-24,Relet,52.529937,-1.846696,Major
"1 Old Hall Bungalows, Bridgnorth",WV16 6RP,S&M,4-Aug-24,Relet,52.477855,-2.555987,Minor
"1 Pleasant House, Pleasant Road, Staple Hill",BS16 5HZ,WOE,3-Jul-24,Relet,51.483447,-2.509027,Major
1 Rodway Court Windsor Place,BS16 9DE,WOE,9-Jun-24,Relet,51.486367,-2.488478,Minor
1 Sabrina Court,SY1 4JU,S&M,2-Oct-24,Relet,52.729077,-2.721165,Minor
"1 Shugborough Close, Bloxwich",WS3 2JD,Central,24-May-24,Relet,52.618208,-2.006072,Minor
1 Sparrow Lane,SY2 3XW,S&M,31-Aug-24,Relet,52.70562428,-2.733697258,Minor
1 Spencer Court,TF11 8DP,S&M,22-Feb-25,Relet,52.667935,-2.373319,Minor
1 St. Andrew's Ashleworth,GL19 4JP,Glouc,24-May-24,Relet,51.931742,-2.273904,Minor
"1 Stokebridge Avenue, Little Stoke",BS34 6LD,WOE,20-Oct-24,Relet,51.52413,-2.555505,Minor
"1 Stone Cross Place, Kempsford",GL7 4GX,Glouc,20-Jun-24,New Build,51.671814,-1.775989,N/A
1 Stoney Pool Poulton,GL7 5LR,Glouc,17-Aug-24,Relet,51.70713,-1.857868,Minor
1 Sycamore Place,WS7 4QW,S&M,30-Jun-24,Relet,52.680289,-1.931103,Minor
1 Talbot Close - Banbury,OX16 1DY,Central,30-Mar-25,Relet,52.073116,-1.36176,Minor
1 Tansey Mews,ST16 1ZS,S&M,31-Mar-25,New Build,52.839395,-2.129926,N/A
1 The Beck,B79 9BT,S&M,10-Sep-24,Relet,52.692007,-1.719852,Minor
"1 The Haven, New Cheltenham Close, Kingswood",BS15 4TJ,WOE,18-Aug-24,Relet,51.467452,-2.498828,Major
"1 Valens Place, Cirencester",GL7 1ZQ,Glouc,8-May-24,Relet,51.71332,-1.9636,Minor
"1 Valentino Row, Ironbridge",TF8 7AB,S&M,8-Mar-24,Relet,52.627244,-2.481381,Minor
1 Violet Way,ST16 1ZN,S&M,19-Mar-25,New Build,52.838711,-2.130696,N/A
"1 Walker Court, Downend",BS16 5QP,WOE,25-Aug-24,Relet,51.484067,-2.492256,Major
"1 Ware Court, Harcombe Road, Winterbourne",BS36 1JA,WOE,13-Oct-24,Relet,51.51835,-2.507758,Minor
"1 Wilson Road, Coseley",WV14 9EN,Central,1-Jul-24,Relet,52.538119,-2.086894,Minor
"1 Winterway, Blockley",GL56 9EF,Glouc,21-Apr-24,Relet,52.016462,-1.75849,Minor
"10 Alder Court, Cheltenham",GL51 0XQ,Glouc,4-Nov-24,Relet,51.902431,-2.127087,Minor
"10 Alvin Drive, Longford",GL2 9FL,Glouc,30-Nov-24,Relet,52.646485,-1.702229,Minor
10 Anton Close,DY12 1HX,S&M,3-Jan-25,Relet,52.382454,-2.299342,Major
"10 Armstrong Drive, Warmley",BS30 8RD,WOE,10-Nov-24,Relet,51.450041,-2.480017,Minor
10 Auden Court,WV6 7QG,S&M,3-Apr-24,Relet,52.596357,-2.199421,Minor
10 Barclay Gardens,TF2 8AB,S&M,2-Apr-24,Relet,52.717735,-2.444553,Minor
"10 Barnmeadow, Yardley",B25 8YT,Central,7-Jul-24,Relet,52.471982,-1.811242,Minor
"10 Bee Orchid Close, Whitchurch",BS14 0UJ,WOE,16-Dec-24,Relet,51.411046,-2.5914,N/A
"10 Bethesda apartments, 60 East Street",BS3 1GG,WOE,29-Aug-24,Relet,51.442184,-2.596855,N/A
"10 Betula Close, Cheltenham",GL51 0GT,Glouc,2-Aug-24,New Build,51.917158,-2.125959,N/A
10 Blackthorn Court,WV11 2SE,S&M,3-Nov-24,Relet,52.631867,-2.053909,Minor
"10 Bramley Close, Bishops Cleeve",GL52 8GF,Glouc,16-Jun-24,Relet,51.9536,-2.053159,Minor
"10 Cains Close, Kingswood",BS15 9ZB,WOE,31-Mar-24,Relet,51.453409,-2.500301,Minor
"10 Church Lane, Cromhall",GL12 8AL,WOE,2-Jul-23,Relet,51.612967,-2.441167,Major
10 Coleridge Close,CV37 7HF,Central,26-Nov-24,Relet,51.611712,-2.517277,Major
10 Collowbridge Road,B45 9JF,S&M,1-Jun-24,Relet,52.394843,-2.019824,Minor
"10 Colston close, Soundwell",GL12 8AL,WOE,14-Jul-24,Relet,51.612967,-2.441167,Major
"10 Convent Close, Snow Hill",WV2 4QX,Central,7-May-24,Relet,52.581801,-2.126133,Minor
10 David Garrick Gardens,WS13 7JN,S&M,7-Feb-25,Relet,52.69593,-1.831261,Minor
10 Drummond Close,TF7 5UH,S&M,30-Jun-24,Relet,52.637266,-2.481817,Minor
"10 Elkington Close, Newport",TF10 7TZ,S&M,13-Apr-24,Relet,52.765273,-2.385252,Minor
"10 Forester Close, Cheltenham",GL51 0FU,Glouc,22-Jan-25,New build,51.913526,-2.107776,N/A
10 Furrow Drive,B79 0FQ,S&M,9-Aug-24,New Build,52.650702,-1.678661,N/A
10 Guild Court,B60 2BT,S&M,3-Jun-24,Relet,52.332644,-2.061606,Minor
"10 Hampton Close, Cadbury Heath",BS30 8EY,WOE,5-Sep-24,Relet,51.446902,-2.486302,N/A
10 Harebell Grove,ST16 1ZQ,S&M,11-Dec-24,New Build,52.839421,-2.130891,N/A
"10 Hethel Close, Quedgeley",GL2 2LB,Glouc,13-Dec-24,New build,51.81843,-2.272705,N/A
"10 Hill View, Pucklechurch",BS16 9RQ,WOE,9-Jun-24,Relet,51.486161,-2.430997,Major
"10 Hopper Avenue, SUA",CV37 9GQ,Central,30-Apr-24,New Build,52.195083,-1.741657,N/A
"10 Hyde Gardens, Halesowen",B63 2FG,Central,5-Dec-24,New Build,52.462938,-2.096282,N/A
"10 Jubliee Crescent, Cradley Heath",B64 7DJ,Central,28-Mar-24,New build,52.468987,-2.086271,N/A
10 Kingston Grange,CV33 8AS,Central,28-Nov-24,New Build,52.200359,-1.479309,N/A
"10 Langley Close, Winchcombe",GL54 5QN,Glouc,26-May-24,Relet,51.951784,-1.97307,Minor
10 Lord Murray Drive,TF7 5TZ,S&M,20-Jan-25,Relet,52.641839,-2.466601,Minor
"10 Lucinia Mews, Cheltenham",GL51 8DR,Glouc,21-Feb-25,Relet,51.90568,-2.105423,Minor
"10 Mangotstone Way, Stonehouse",GL10 3XP,Glouc,24-Jan-25,New Build,51.757665,-2.302851,N/A
10 Maythorne Close,TF7 4DH,S&M,19-Apr-24,Relet,52.63249,-2.438502,N/A
10 Maythorne Close,TF7 4DH,S&M,20-Nov-24,Relet,51.821693,-2.266605,Minor
10 Milne Street,OX25 2ED,Central,2-Nov-24,Relet,51.882182,-1.153134,Minor
"10 Milne Street, Bicester",OX25 2BU,Central,16-Jun-24,New Build,51.881982,-1.152919,N/A
"10 Mountbatten Way, Stoke Gifford",BS34 8DA,WOE,15-Aug-24,Relet,51.51856,-2.527217,N/A
10 Murdoch Drive,DY6 9HJ,Central,20-Jan-25,Relet,52.502174,-2.171941,Minor
"10 Neston Close, Swindon",SN3 6GH,WOE,24-Jun-24,Relet,51.52819,-1.727553,N/A
10 Newman Gardens,CV33 8BZ,Central,10-Dec-24,New Build,52.199674,-1.478951,N/A
"10 Norris Mews, Northampton",NN6 7WF,Central,27-Oct-24,Relet,52.297693,-1.089367,Minor
"10 Norton Close, Northfield",B31 2HT,Central,9-Apr-24,Relet,52.411867,-1.965261,Major
"10 Old Mill Road, Cheltenham",GL51 0GQ,Glouc,28-Mar-24,New Build,51.916826,-2.125013,N/A
"10 Parklands, Churchdown",GL3 1JS,Glouc,12-Jan-25,Relet,51.886377,-2.189964,Minor
10 Peters Close,TF4 3NS,S&M,2-Jun-24,Relet,52.658378,-2.462593,Minor
"10 Pilgrove Close, Cheltenham",GL51 0QY,Glouc,3-May-24,Relet,51.914452,-2.118107,Major
"10 Pinewood, Kingswood",BS15 4RW,WOE,29-Dec-24,Relet,51.467629,-2.49513,Minor
"10 Reeves Close, Ayelsbury",HP22 0AG,Central,12-Jul-24,Relet,51.80432,-0.728924,Minor
10 Richardson Court,WS7 1ND,S&M,5-Jun-24,Relet,52.684789,-1.941289,Minor
10 Shakespeare Road,WS7 2LW,S&M,16-Apr-24,Relet,52.68749,-1.932024,Major
"10 Siston Close, Kingswood",BS15 4NW,WOE,22-Dec-24,Relet,51.47233,-2.484714,Major
10 Spencer Court,TF11 8DP,S&M,8-Mar-25,Relet,52.667935,-2.373319,Minor
"10 Squirrel Court, Bridgnorth",WV16 4BS,S&M,14-Feb-24,Relet,52.534491,-2.423829,Minor
"10 St. Pauls Court, Moreton in Marsh",GL56 0ET,Glouc,29-Nov-24,Relet,52.399843,-1.989241,Major
"10 Stone Cross Place, Kempsford",GL7 4GX,Glouc,15-Jul-24,New Build,51.671814,-1.775989,NA
"10 Stone Cross Place, Kempsford",GL7 4GX,Glouc,20-Jan-25,Relet,51.671814,-1.775989,Minor
"10 Tiddesley Avenue, Halesowen",B63 2FF,Central,24-Oct-24,New Build,52.462075,-2.096118,N/A
"10 Tobruk Close, Innsworth",GL3 1QR,Glouc,27-Mar-25,New Build,51.892547,-2.204405,N/A
10 Trinity Court,SY11 2ER,S&M,14-Jun-24,Relet,52.85771,-3.052166,Minor
"10 Trubshaw Close, Tetbury",GL8 8GL,Glouc,25-Nov-24,Relet,51.879436,-2.165456,Minor
10 Upton lane,SY2 5RR,S&M,19-Apr-24,Relet,52.712031,-2.722778,Minor
10 Warrener Close,GL3 1GE,Glouc,21-Feb-25,New Build,51.884507,-2.194881,N/A
"10 Washington Road, Innsworth",GL3 1GJ,Glouc,4-Dec-24,New Build,51.882478,-2.198897,N/A
"10 Westfield, Stonehouse",GL10 3XT,Glouc,7-Mar-25,New Build,51.756325,-2.309627,N/A
10 White Bryony Drive,TF1 6BD,S&M,28-Mar-24,New Build,52.717003,-2.519851,N/A
10 Windridge Court,SY11 1HQ,S&M,19-Mar-24,Relet,52.863439,-3.048814,Minor
10 Woods Lane,B64 7AN,Central,2-May-24,New Build,52.468735,-2.087006,N/A
10 Woodview Rise,B90 9DQ,Central,30-Oct-24,New Build,52.37356977,-1.803027773,N/A
"100 Apley Road, Twigworth",GL2 9RZ,Glouc,26-Sep-24,New Build,51.89697,-2.220092,N/A
"100 Earlstone Crescent, Cadbury Heath",BS30 8AD,WOE,25-Feb-24,Relet,51.444147,-2.485696,Major
"100 Graven Hill Road, Bicester",OX25 2BF,Central,25-Jul-24,New Build,51.883249,-1.149045,N/A
100 Newcomen Way,TF7 5UB,S&M,11-Oct-24,Relet,52.636071,-2.480944,Minor
101 Ironbridge Road,GL2 9GT,Glouc,20-Feb-25,New Build,51.895546,-2.221742,N/A
"101 St. Mary's, Tetbury",GL8 8BW,Glouc,5-May-24,Relet,51.642721,-2.159567,Major
"102 Alma Road, Banbury",OX16 4RQ,Central,19-Sep-24,Relet,52.060506,-1.325358,Major
"102 Graven Hill Road, Bicester",OX25 2BF,Central,25-Jul-24,New Build,51.883249,-1.149045,N/A
"103 Barley Fields, Thornbury",BS35 1AQ,WOE,24-Jun-24,Relet,51.618679,-2.525994,Minor
103 Ironbridge Road,GL2 9GT,Glouc,20-Feb-25,New Build,51.895546,-2.221742,N/A
"104 Flanders Close, Bicester",OX26 6FZ,Central,25-Nov-24,Relet,52.838688,-2.126569,Minor
"104 Graven Hill Road, Bicester",OX25 2BU,Central,26-Jul-24,New Build,51.881982,-1.152919,N/A
104 Purcell Avenue,WS13 7PG,S&M,28-Jan-25,Relet,52.695224,-1.821749,Minor
"105 Conygre Road, Filton",BS34 7DG,WOE,11-Feb-24,Relet,51.513857,-2.565957,Major
"105 Cranleigh Court Road, Yate",BS37 5DN,WOE,11-Apr-24,Relet,51.544576,-2.424801,Minor
105 Ironbridge Road,GL2 9GT,Glouc,31-Mar-25,New Build,51.895546,-2.221742,N/A
"105 Longford Park Road, Bodicote",OX15 4SZ,Central,10-Jul-24,Relet,52.041966,-1.323304,Minor
105 Meadowsweet Avenue,ST16 1ZF,S&M,12-Nov-24,New Build,52.838688,-2.126569,N/A
"105 Pound Road, Kingswood",BS15 4QX,WOE,10-Nov-24,Relet,51.469997,-2.494494,Minor
106 Beauchamp Avenue,DY11 7AQ,S&M,29-Aug-24,Relet,52.373713,-2.25699,Minor
"106 Despenser Road, Priors Park",GL20 5TW,Glouc,7-Apr-24,Relet,51.986551,-2.155342,Minor
"106 Graven Hill Lane, Bicester",OX24 2BU,Central,26-Jul-24,New Build,51.8817899,-1.152870773,N/A
107 Ironbridge Road,GL2 9GT,Glouc,20-Feb-25,New Build,51.895546,-2.221742,N/A
107 Meadowsweet Avenue,ST16 1ZF,S&M,12-Nov-24,New Build,52.838688,-2.126569,N/A
"107 Pound Road, Kingswood",BS15 4QX,WOE,21-Jul-24,Relet,51.469997,-2.494494,Minor
"108 Apley Road, Twigworth",GL2 9RZ,Glouc,15-Oct-24,New Build,51.89697,-2.220092,N/A
"108 Bromford Rise, Penn",WV3 0ET,Central,20-May-24,Relet,52.576641,-2.137118,Minor
"108 Graven Hill Road, Bicester",OX25 2BU,Central,26-Jul-24,New Build,51.881982,-1.152919,N/A
109 Eagle Lane,B31 5FD,Central,29-Nov-24,New Build,52.406969,-1.993833,N/A
109 Ironbridge Road,GL2 9GT,Glouc,20-Feb-25,New Build,51.895546,-2.221742,N/A
109 Meadowsweet Avenue,ST16 1ZF,S&M,12-Nov-24,New Build,52.838688,-2.126569,N/A
10a Victory Avenue,WS7 2AL,S&M,16-Nov-24,Relet,52.682402,-1.932106,Minor
"11 Abbot Richard Lane, Moreton in Marsh",GL56 0EZ,Glouc,16-May-24,New Build,51.986751,-1.68979,N/A
"11 Badgers Field, Chipping Campden",GL55 6EL,Glouc,6-May-24,Relet,52.049429,-1.778732,minor
11 Barclay Gardens,TF2 8AB,S&M,25-May-24,Relet,52.717735,-2.444553,Minor
11 Barons Place,WS7 1NW,S&M,16-Apr-24,Relet,52.681757,-1.938239,Minor
"11 Beaumoor Place, Fairford",GL7 4BH,Glouc,17-Feb-25,Relet,51.706935,-1.773686,Minor
"11 Bee Orchid Close, Whitchurch",BS14 0UJ,WOE,10-Feb-25,Relet,51.411046,-2.5914,N/A
11 Bells Lane,WS7 2PD,S&M,22-Nov-24,Relet,52.701483,-2.429323,Minor
"11 Bethesda Apartments, 60 East Street, Bedminster",BS3 1GG,WOE,29-Aug-24,Relet,51.442184,-2.596855,N/A
"11 Betula Close, Cheltenham",GL51 0GT,Glouc,5-Jul-24,New Build,51.917158,-2.125959,N/A
"11 Birch Road, Yate",BS37 5EP,WOE,29-Sep-24,Relet,51.544089,-2.422634,Major
11 Blackthorn Court,WV11 2SE,S&M,12-Mar-24,Relet,52.631867,-2.053909,Minor
11 Brighton Mews,WV3 9QS,Central,18-Mar-24,Relet,52.585099,-2.145469,Minor
"11 Britten Place, Cheltenham",GL51 7NS,Glouc,1-Apr-24,Relet,51.902033,-2.111766,Major
11 Bromford Close,B20 2RS,Central,23-Oct-24,Relet,52.512562,-1.923054,Minor
"11 Cavendish Way, Almondsbury",BS10 7UP,WOE,22-Oct-24,Relet,51.523898,-2.618044,N/A
"11 Church View, Moreton on Marsh",GL56 9QJ,Glouc,8-Jul-24,Relet,52.020426,-1.709869,Minor
11 Coleridge Drive,WV6 7QE,S&M,18-Nov-24,Relet,52.188525,-2.507811,Minor
"11 Coombe House, Tetbury",GL8 8DS,Glouc,19-Nov-24,Relet,52.634195,-1.64063,Minor
"11 Court Avenue, Stoke Gifford",BS34 8PJ,WOE,31-Mar-24,Relet,51.519834,-2.539843,Major
"11 Ermin Place, Cirencester",GL7 1NZ,Glouc,19-Dec-24,Relet,51.704744,-1.956365,Major
11 Eyton View,TF1 3JW,S&M,26-Oct-24,Relet,52.713072,-2.52102,Major
"11 Fairhaven Avenue, Brockworth",GL3 4BY,Glouc,15-Sep-24,Relet,51.850018,-2.160838,Major
"11 Feltham Court, 695 Southmead",BS34 7QY,WOE,25-Aug-24,Relet,51.506701,-2.582365,Minor
11 Fernwood Close,TF1 3QY,S&M,4-Aug-24,Relet,52.715194,-2.523059,Minor
"11 Forester Close, Cheltenham",GL51 0FU,Glouc,22-Jan-25,New build,51.913526,-2.107776,N/A
"11 Godwin Close, Cheltenham",GL52 2QT,Glouc,7-May-24,Relet,51.902537,-2.062408,Minor
11 Golden Close,WS15 2HF,S&M,27-Feb-25,Relet,52.753004,-1.943701,Major
"11 Golding Close, Almondsbury",BS10 7JX,WOE,5-Sep-24,Relet,51.516738,-2.623669,N/A
"11 Halfpenny Close, Twigworth",GL2 9GX,Glouc,29-Nov-24,Relet,51.884922,-2.229404,Major
"11 Hampton Close, Cadbury Heath",BS30 8EY,WOE,19-Sep-24,Relet,51.446902,-2.486302,N/A
"11 Handel Walk, Lichfield",WS13 7PQ,S&M,29-Feb-24,Relet,52.694937,-1.822342,Minor
"11 Hayfield Marshfield, Chippenham",SN14 8PG,WOE,5-Jan-25,Relet,51.46352,-2.314962,Minor
"11 Hexton Close, Solihull",B90 1BT,Central,2-Oct-24,Relet,52.406085,-1.851808,Major
"11 Langdale Court, Patchway",BS34 5JE,WOE,24-Nov-24,Relet,51.480591,-2.495603,Minor
11 Mansell Road,TF1 1QQ,S&M,13-Nov-24,Relet,52.699129,-2.525071,Minor
"11 Mercury Drive, Wolverhampton",WV10 6DG,Central,19-Aug-24,Relet,52.611097,-2.128625,Major
"11 Millham Road, Bishops Cleeve",GL52 8BB,Glouc,3-Dec-24,Relet,51.949995,-2.054239,Minor
"11 Neston Close, Swindon",SN3 6GH,WOE,24-Jun-24,Relet,51.52819,-1.727553,N/A
"11 North Park, Kingswood",BS15 1UW,WOE,29-Dec-24,Relet,51.466697,-2.502808,Minor
11 Othello Road,WV10 9NB,Central,19-Jan-25,Relet,52.606031,-2.117822,Minor
"11 Poinsettia Way, Newent",GL18 1LB,Glouc,29-Aug-24,Relet,51.922383,-2.4046,Major
11 Portland Drive,TF3 5EW,S&M,12-Sep-24,Relet,52.678785,-2.467246,Major
"11 Raven Close, Gloucester",GL4 4AR,Glouc,10-Mar-24,Relet,51.842831,-2.213241,Major
"11 Rees Court, Banbury",OX16 9WU,Central,30-May-24,Relet,52.047082,-1.355292,Minor
11 Sankey Grove,WS13 8UL,S&M,19-Aug-24,Relet,52.716923,-1.773705,Major
11 Shepherd Close,WS13 7RT,S&M,30-Apr-24,Relet,52.696861,-1.821979,Minor
"11 Spring Gardens, Tewkesbury",GL20 5DN,Glouc,11-Aug-24,Relet,51.994763,-2.153135,Minor
11 Squirrel Court,WV16 4BS,S&M,17-Jan-24,Relet,52.534491,-2.423829,Minor
"11 St. Georges Close, Moreton on Marsh",GL56 0LX,Glouc,3-Jun-24,Relet,51.98796,-1.698997,Minor
11 Stafford Crescent Thornbury,BS35 1DH,WOE,9-Jun-24,Relet,51.610724,-2.52502,Minor
11 Station Street,B60 2BS,S&M,13-Jul-24,Relet,52.332351,-2.062157,Minor
"11 Stone Cross Place, Kempsford",GL7 4GX,Glouc,15-Jul-24,New Build,51.671814,-1.775989,N/A
11 Tannery Court,DY13 8EW,S&M,10-Aug-24,Relet,52.342241,-2.279544,Minor
"11 Tobruk Close, Innsworth",GL3 1QR,Glouc,27-Mar-25,New Build,51.892547,-2.204405,N/A
"11 Trafalgar Road, Cirencester",GL7 2EJ,Glouc,23-Sep-24,Relet,51.721355,-1.971391,Major
"11 Turnstone Close, Coombe Hill",GL19 4FB,Glouc,11-Dec-24,New Build,51.942414,-2.16202,N/A
11 Violet Way,ST16 1ZN,S&M,26-Nov-24,New Build,52.838711,-2.130696,N/A
11 Warrener Close,GL3 1GE,Glouc,21-Feb-25,New Build,51.884507,-2.194881,N/A
11 Weaver Crescent,GL2 9SH,Glouc,27-Mar-24,New Build,51.896225,-2.219405,N/A
"11 Weir House, Bristol",BS4 4AR,WOE,7-Jul-24,Relet,51.4502,-2.554044,Minor
"11 Western Close, Daventry",NN11 9RS,Central,18-Oct-24,Relet,52.258572,-1.169153,Major
"11 Wharf Lane, Cradley Heath",B64 6SL,Central,10-Aug-24,Relet,52.471281,-2.053285,Minor
11 Whimbrell Drive,GL19 4FD,Glouc,21-Oct-24,New Build,51.94361,-2.161952,N/A
"11 Wilcox Gardens, Wickwar",GL12 8FS,WOE,8-Feb-25,Relet,51.584098,-2.397976,Minor
"11 Wilson Drive, Cheltenham",GL51 0GY,Glouc,24-Apr-24,Relet,51.903458,-2.116523,Minor
11 Woodview Rise,B90 8DQ,Central,30-Oct-24,New Build,52.373264,-1.803106,N/A
"110 Graven Hill Road, Bicester",OX25 2BU,Central,26-Jul-24,New Build,51.881982,-1.152919,N/A
"111 Booth Street, Handsworth",B21 0NH,Central,11-Jun-24,Relet,52.503252,-1.945876,Minor
"111 Bradfield Way, Dudley",DY1 4FD,Central,3-Jul-24,Relet,52.526065,-2.084953,Minor
111 Bromford rise,WV3 0ES,Central,30-Apr-24,Relet,52.575823,-2.13685,Minor
"111 Coniston Road, Patchway",BS34 5JS,WOE,16-May-24,Relet,51.535696,-2.575699,Major
111 Eagle Lane,B31 5FF,Central,29-Nov-24,New Build,52.40989,-1.989041,N/A
111 Longford Park Road,OX15 4SZ,Central,13-Nov-24,Relet,52.041966,-1.323304,Minor
111 Meadowsweet Avenue,ST16 1ZF,S&M,12-Nov-24,New Build,52.838688,-2.126569,N/A
111 St Marys Road Tetbury,GL8 8BW,Glouc,5-Jul-24,Relet,51.642721,-2.159567,Major
"111 Thornbury Road, Walsall",WS2 8JJ,Central,31-May-24,Relet,52.595023,-1.991084,Minor
111 Upper Villiers Street,WV2 4NU,Central,14-Feb-24,Relet,52.570245,-2.132775,Major
112 Graven Hill Road,OX25 2BU,Central,26-Jul-24,New build,51.881982,-1.152919,N/A
113 Eagle Lane,B31 5FD,Central,29-Nov-24,New Build,52.406969,-1.993833,N/A
113 Meadowsweet Avenue,ST16 1ZF,S&M,12-Nov-24,New Build,52.838688,-2.126569,N/A
"113 Thornbury Road, Walsall",WS2 8JJ,Central,20-Oct-24,Relet,52.595023,-1.991084,Minor
"114 Graven Hill Road, Bicester",OX25 2BU,Central,26-Jul-24,New Build,51.881982,-1.152919,N/A
"114 Park Lane, Halewowen",B63 2NP,Central,28-Aug-24,New Build,52.46255,-2.097179,N/A
"114 Tower Road South, Warmley",BS30 8BT,WOE,5-Apr-24,Relet,51.447227,-2.477269,Major
"114 Upper St John, Lichfield",WS14 9DX,S&M,10-Jan-24,Relet,52.678141,-1.825857,Minor
"114a Queens Road, Priors Park",GL20 5ER,Glouc,11-Apr-24,Relet,51.984756,-2.15254,Minor
"115 Longford Park Road, Banbury",OX15 4SZ,Central,4-Nov-24,Relet,52.041966,-1.323304,Minor
115 Meadowsweet Avenue,ST16 1ZF,S&M,12-Nov-24,New Build,52.838688,-2.126569,N/A
116 Graven Hill Road,OX25 2BU,Central,26-Jul-24,New build,51.881982,-1.152919,N/A
"116 Park Lane, Halesowen",B63 2NP,Central,28-Aug-24,New Build,52.46255,-2.097179,N/A
117 Meadowsweet Avenue,ST16 1ZF,S&M,2-Dec-24,New Build,52.838688,-2.126569,N/A
117 St. Marys Road. Tetbury,GL8 8BW,Glouc,5-Jan-25,Relet,51.642721,-2.159567,Minor
118 Apley Road,GL2 9RZ,Glouc,20-Feb-25,New Build,51.89697,-2.220092,N/A
"118 Avenue Road, Attleborough",CV11 4JS,Central,10-Jun-24,Relet,52.513697,-1.459025,Major
"118 Park Lane, Halesowen",B63 2NP,Central,26-Sep-24,New Build,52.46255,-2.097179,N/A
"119 Eagle Lane, Northfield",B31 5FD,Central,29-Oct-24,New Build,52.406969,-1.993833,N/A
119 Meadowsweet Avenue,ST16 1ZF,S&M,2-Dec-24,New Build,52.838688,-2.126569,N/A
11a Greencroft,WS13 7JT,S&M,31-May-24,Relet,52.693151,-1.836553,Minor
11a Victory Avenue,WS7 2AL,S&M,4-Sep-24,Relet,52.682402,-1.932106,Major
12 Acorn Road,B61 0TR,S&M,3-Jun-24,Relet,52.363212,-2.047661,Minor
"12 Atherton Close, Shurdington",GL51 4SB,Glouc,2-Jun-24,Relet,51.86507,-2.120367,Minor
12 Barclay Gardens,TF2 8AB,S&M,14-Apr-24,Relet,52.717735,-2.444553,Minor
12 Beaufort Road,BS37 5DS,WOE,15-Sep-24,Relet,51.544106,-2.425273,Major
"12 Bee Orchid Close, Whitchurch",BS14 0UJ,WOE,25-Nov-24,Relet,51.411046,-2.5914,N/A
"12 Bethesda apartments, 60 East Street",BS3 1GG,WOE,29-Aug-24,Relet,51.442184,-2.596855,N/A
"12 Betula Close, Cheltenham",GL51 0GT,Glouc,5-Jul-24,New Build,51.917158,-2.125959,N/A
12 Birchwood Close,TF1 2NU,S&M,28-Apr-24,Relet,52.69209,-2.506596,Minor
12 Bromwynd Close,WV2 4PQ,Central,25-Mar-24,Relet,52.570144,-2.134737,Major
"12 Burcombe, Woodmancote",GL7 7EH,Glouc,28-Apr-24,Relet,51.780547,-1.998692,Major
"12 Castle Close, Gotherington",GL52 9EE,Glouc,8-Feb-25,Relet,51.965446,-2.061848,Minor
"12 Clover Road, Thornbury",BS35 1AS,WOE,5-May-24,Relet,51.622266,-2.526237,Minor
12 Dart Close Streamleaze,BS35 2AF,WOE,30-Jun-24,Relet,51.604455,-2.521612,Minor
"12 Downfield House, Shurdington",GL51 4SY,Glouc,7-Dec-24,Relet,51.865944,-2.120129,Major
"12 Eastbury Close, Thornbury",BS35 1DF,WOE,9-Jun-24,Relet,51.611712,-2.517277,Major
"12 Eastfields, Braunston",NN11 7JN,Central,17-Aug-24,Relet,52.291736,-1.202798,Major
"12 Eyton View, Telford",TF1 3JW,S&M,1-Mar-24,Relet,52.713072,-2.52102,Minor
12 Florence Court,SY11 2BF,S&M,25-Dec-24,Relet,52.855215,-3.061744,Minor
"12 Forester Close, Cheltenham",GL51 0FU,Glouc,22-Jan-25,New build,51.913526,-2.107776,N/A
"12 Freeminers Close, Cinderford",GL14 2PF,Glouc,27-May-24,Relet,51.826183,-2.495557,Major
12 Furrow Drive,B79 0FQ,S&M,9-Aug-24,New Build,52.650702,-1.678661,N/A
12 Furrow Field,CV47 2DJ,Central,17-Oct-24,Relet,52.212269,-1.431721,Minor
"12 Gassons Way, Lechlade",GL7 3BG,Glouc,17-Jan-25,Relet,51.698133,-1.694396,Minor
"12 Green Acre, Brockworth",GL3 4NG,Glouc,3-Feb-25,Relet,51.842828,-2.158562,Major
12 Griffin Close,WS7 1JG,S&M,13-Mar-24,Relet,52.683846,-1.941408,Major
12 Griffin Close,WS7 1LG,S&M,11-Dec-24,Relet,52.688028,-1.945441,Minor
12 Halfpenny Close,GL2 9GX,Glouc,20-Oct-24,Relet,51.894491,-2.223567,Minor
"12 Hampton Close, Cadbury Heath",BS30 8EY,WOE,5-Sep-24,Relet,51.446902,-2.486302,N/A
12 harebell way,OX26 3TP,Central,26-Mar-24,Relet,51.909345,-1.163138,Minor
"12 Hathrop, Fairford",GL7 4JS,Glouc,14-Nov-24,Relet,51.710591,-1.771945,Minor
12 Heather Bank,SY11 3PT,S&M,2-Jun-24,Relet,52.896563,-3.03173,Minor
12 Hill Top View,WS15 4DG,S&M,29-Aug-24,Relet,52.735575,-1.866756,Minor
"12 Hopper Avenue, SUA",CV37 9GQ,Central,30-Apr-24,New Build,52.195083,-1.741657,N/A
"12 Hyde Garde, Halesowen",B63 2FG,Central,5-Dec-24,New Build,52.462938,-2.096282,N/A
"12 Jubliee Crescent, Cradley Heath",B64 7DJ,Central,28-Mar-24,New build,52.468987,-2.086271,N/A
12 Juniper Close,B27 6JS,Central,7-Feb-24,Relet,52.454494,-1.827151,Major
12 Kingston Grange,CV33 8AS,Central,28-Nov-24,New Build,52.200359,-1.479309,N/A
12 Lady Meadow Close,B78 3JW,S&M,18-Jan-25,Relet,52.628642,-1.699455,Minor
12 Laker Street,HP22 0AE,Central,28-Feb-25,Relet,51.804569,-0.730324,Minor
"12 Lanes Court, Tewkesbury",GL20 5JH,Glouc,1-Sep-24,Relet,51.990491,-2.153914,N/A
"12 Lanes court, Tewkesbury",GL20 5JH,Glouc,16-Feb-25,Relet,51.990491,-2.153914,Minor
"12 Locking Drive, Gloucester",GL2 2BS,Glouc,14-Oct-24,Relet,51.824179,-2.268434,Major
"12 Luton Close, Yate",BS37 4NJ,WOE,11-Jul-24,Relet,51.529305,-2.423203,N/A
"12 Mangotstone Way, Stonehouse",GL10 3XP,Glouc,24-Jan-25,New Build,51.757665,-2.302851,N/A
12 Manley Road,WS13 6TF,S&M,1-Mar-25,Relet,52.688571,-1.809601,Minor
"12 Meadowsweet House, Churchdown",GL3 1LW,Glouc,10-Mar-24,Relet,51.887724,-2.190434,Minor
"12 Melville Estate, Bourton on the Water",GL54 2ET,Glouc,3-Apr-24,Relet,51.892754,-1.756668,Major
"12 Milne Street, Bicester",OX25 2BU,Central,17-Jun-24,New Build,51.881982,-1.152919,N/A
"12 Neston Close, Swindon",SN3 6GH,WOE,24-Jun-24,Relet,51.52819,-1.727553,N/A
12 Newman Gardens,CV33 8BZ,Central,10-Dec-24,New Build,52.199674,-1.478951,N/A
"12 Old Mill Road, Cheltenham",GL51 0GQ,Glouc,28-Mar-24,New Build,51.916826,-2.125013,N/A
12 Pauline Close,TF1 5GG,S&M,12-Aug-24,Relet,52.695694,-2.485153,Minor
"12 Pendennis House, Nelson Road, Staple Hill",BS16 5HY,WOE,18-Oct-24,Relet,51.482928,-2.508891,Minor
"12 Pool Paddock, Patchway",BS34 5NZ,WOE,29-Dec-24,Relet,51.52625,-2.580079,Minor
"12 Rees Court, Banbury",OX16 9WU,Central,12-Dec-24,Relet,52.047082,-1.355292,Minor
"12 Sinclair House, Gloucester Road North, Filton",BS34 7PB,WOE,15-Jan-25,Relet,51.505183,-2.576625,Minor
"12 Springfield Road, Mangotsfield",BS16 9BN,WOE,15-Sep-24,Relet,51.493109,-2.488968,Major
"12 Stone Cross Place, Kempsford",GL7 4GX,Glouc,11-Jun-24,New Build,51.671814,-1.775989,N/A
"12 The Glebe, Sapperton",GL7 6LL,Glouc,25-Aug-24,Relet,51.726673,-2.078134,Minor
"12 The Pleydells, Circencester",GL7 5TE,Glouc,6-Jan-25,Relet,51.719257,-1.900171,Minor
"12 The Quarry, Fairford",GL7 4JX,Glouc,30-Oct-24,Relet,51.709998,-1.769997,Minor
"12 Tiddesley Avenue, Halesowen",B63 2FF,Central,30-Oct-24,New Build,52.462075,-2.096118,N/A
12 Valley Court,WV16 5DW,S&M,22-Jun-24,Relet,52.534151,-2.425801,Major
12 Washington Road,GL3 1QJ,Glouc,21-Feb-25,New Build,51.892063,-2.203851,N/A
"12 Wheat Close, Broadwell",GL56 0TH,Glouc,3-Apr-24,Relet,51.947336,-1.704521,Major
"12 Whimbrell Drive, Cheltenham",GL19 4FD,Glouc,11-Oct-24,New Build,51.94361,-2.161952,N/A
"12 White Bryony Drive, Telford",TF1 6BD,S&M,28-Mar-24,New Build,52.717003,-2.519851,N/A
12 Wilson Road Shurdington,GL51 4SN,Glouc,18-Aug-24,Relet,51.865002,-2.118878,Minor
12 Windridge Court,SY11 1HQ,S&M,8-Sep-24,Relet,52.863439,-3.048814,Minor
12 Woods lane,B64 7AN,Central,1-May-24,New Build,52.468735,-2.087006,N/A
12 Woodview Rise,B90 8DQ,Central,30-Oct-24,New Build,52.373264,-1.803106,N/A
12 Yeomanry Way,TF10 7GZ,S&M,27-Feb-25,Relet,52.763715,-2.362326,Minor
"12 Yorkley Road, Cheltenham",GL52 5FP,Glouc,9-Jun-24,Relet,51.90242,-2.042946,Minor
120 Apley Road Twigworth,GL2 9RZ,Glouc,31-Mar-25,New Build,51.89697,-2.220092,N/A
120 Meadow Way,B79 0EE,S&M,31-Mar-24,Relet,52.644358,-1.683245,Minor
"120 Vale Road, Bishops Cleeve",GL52 8ER,Glouc,25-Aug-24,Relet,51.954083,-2.059097,Minor
"121 Eagle Lane, Northfield",B31 5FD,Central,29-Oct-24,New Build,52.406969,-1.993833,N/A
121 Longford Park Road,OX15 4SZ,Central,12-Oct-24,Relet,52.041966,-1.323304,Major
121 Meadowsweet Avenue,ST16 1ZF,S&M,2-Dec-24,New Build,52.838688,-2.126569,N/A
122 Apley Road Twigworth,GL2 9RZ,Glouc,31-Mar-25,New Build,51.89697,-2.220092,N/A
"123 Eagle Lane, Northfield",B31 5FD,Central,29-Oct-24,New Build,52.406969,-1.993833,N/A
123 Meadowsweet Avenue,ST16 1ZF,S&M,2-Dec-24,New Build,52.838688,-2.126569,N/A
124 Apley Road Twigworth,GL2 9RZ,Glouc,31-Mar-25,New Build,51.89697,-2.220092,N/A
124 Hordern Road,WV6 0HR,Central,29-Oct-24,Relet,52.600135,-2.154062,Minor
124 St Thomas Way,WS15 1RA,S&M,4-Nov-24,Relet,52.747625,-1.909236,Minor
"125 Coniston Road, Patchway",BS34 5JU,WOE,10-Nov-24,Relet,51.536336,-2.57725,Minor
125 Meadowsweet Avenue,ST16 1ZF,S&M,2-Dec-24,New Build,52.838688,-2.126569,N/A
"125 Seymour Road, Staple Hill",BS16 4TA,WOE,15-Apr-24,Relet,51.476293,-2.504439,Major
"125 St. Mary's Road, Tetbury",GL8 8BW,Glouc,14-Feb-25,Relet,51.642721,-2.159567,Major
"126 Hordern Road, Whitmore Reans",WV6 0HR,Central,5-Sep-24,Relet,52.600135,-2.154062,Minor
"127 Alma Road, Banbury",OX16 4RL,Central,19-Oct-24,Relet,52.060834,-1.324405,Major
127 Meadowsweet Avenue,ST16 1ZF,S&M,2-Dec-24,New Build,52.838688,-2.126569,N/A
"127 New Cheltenham Road, Kingswood",BS15 4RR,WOE,19-Nov-24,Relet,51.638616,-2.163209,Minor
"127 Queens Road, Tewkesbury",GL20 5QH,Glouc,2-Oct-24,Relet,51.993246,-2.150712,Major
129 Meadwosweet Avenue,ST16 1ZF,S&M,4-Dec-24,New Build,52.838688,-2.126569,N/A
12A Langley Close,GL54 5QN,Glouc,3-Oct-24,Relet,51.951784,-1.97307,Minor
"12a Peache Court, Peache Road, Downend",BS16 5TP,WOE,4-Aug-24,Relet,51.488784,-2.49981,Minor
12A Pullar Court,GL52 8RY,Glouc,20-Oct-24,Relet,51.947489,-2.065083,Minor
"12b Pullar Court, Bishops Cleeve",GL52 8RY,Glouc,2-Jan-25,Relet,51.947489,-2.065083,Minor
"12Westfield, Stonehouse",GL10 3XT,Glouc,7-Mar-25,New Build,51.756325,-2.309627,N/A
"13 Abbot Richard Lane, Moreton in Marsh",GL56 0EZ,Glouc,16-May-24,New Build,51.986751,-1.68979,N/A
"13 Barnmeadow Road, Winchcombe",GL54 5QA,Glouc,12-May-24,Relet,51.955173,-1.969352,Major
13 bath crescent,OX26 1DS,Central,11-Apr-24,Relet,51.894786,-1.174507,Minor
"13 Bee Orchid Close, Whitchurch",BS14 0UJ,WOE,10-Feb-25,Relet,51.411046,-2.5914,N/A
"13 Bethesda apartments, 60 East Street",BS3 1GG,WOE,29-Aug-24,Relet,51.442184,-2.596855,N/A
"13 Betula Close, Cheltenham",GL51 0GT,Glouc,5-Jul-24,New Build,51.917158,-2.125959,N/A
"13 Birdwood, Hanham",BS15 3BU,WOE,19-May-24,Relet,51.450739,-2.508734,Minor
13 Bishop Close,WS11 4AJ,S&M,26-Jan-25,Relet,52.695892,-2.035247,Major
"13 Blenheim Drive, Yate",BS37 5DA,WOE,8-Nov-24,Relet,51.547666,-2.425508,Major
13 Chapel Court,ST20 0JL,S&M,23-Feb-25,Relet,52.782058,-2.262761,Minor
"13 Chipperfield Drive, Kingswood",BS15 4DP,WOE,18-Feb-24,Relet,51.46651,-2.494039,Major
13 Downfield House,GL51 4SY,Glouc,29-Sep-24,Relet,51.865944,-2.120129,Minor
"13 Enfield, Winchcombe",GL54 5QL,Glouc,8-May-24,Relet,51.952459,-1.972511,Minor
"13 Foremarke Road, Cheltenham",GL54 5GL,Glouc,14-Feb-25,New Build,51.95913,-1.971916,N/A
"13 Forester Close, Cheltenham",GL51 0FU,Glouc,6-Dec-24,New Build,51.913526,-2.107776,N/A
13 Harebell Way,OX26 2TT,Central,9-Jan-25,Relet,51.91004895,-1.163472716,Major
"13 Lea Road, Brockworth",GL3 4JD,Glouc,21-Apr-24,Relet,51.844626,-2.151789,Major
13 Maythorne Close,TF7 4DH,S&M,27-Mar-24,Relet,52.63249,-2.438502,Major
13 Nene Walk,NN11 4QH,Central,19-Dec-24,Relet,52.255181,-1.180541,Major
"13 Pillcroft Close, Witcombe",GL3 4TD,Glouc,16-Jun-24,Relet,51.841531,-2.139412,minor
"13 Pochard Way, cirencester",GL7 5FG,Glouc,14-May-24,Relet,51.667766,-1.934327,Minor
"13 Quaker Court, Thornbury",BS35 2NY,WOE,19-May-24,Relet,51.608651,-2.524289,Minor
13 Rees Court,OX16 9WU,Central,5-Dec-24,Relet,52.047082,-1.355292,Minor
13 Rowan Grove,WS7 4RL,S&M,27-Jun-24,Relet,52.679263,-1.928295,Minor
"13 Semele Close, Charlton Road",BS31 2TH,WOE,8-Sep-24,Relet,51.400299,-2.513392,Minor
13 Somerville Road,DE13 7EP,S&M,25-May-24,Relet,52.728875,-1.748728,Major
"13 Stone Cross Place, Kempsford",GL7 4GX,Glouc,11-Jun-24,New Build,51.671814,-1.775989,N/A
"13 Sycamore Road, Chasetown",WS7 4RN,S&M,31-Jan-24,Relet,52.679039,-1.929582,Minor
13 The Croft Leys,WS15 4EW,S&M,22-Nov-24,Relet,51.896225,-2.219405,Minor
"13 The Meads, Downend",BS16 6RG,WOE,3-Mar-24,Relet,51.494873,-2.492675,Major
"13 The Oaks, Merridale Road",WV3 9RZ,Central,21-Jul-24,Relet,52.584635,-2.142928,Minor
13 The Quarry Fairford,GL7 4JX,Glouc,25-Jul-24,Relet,51.709998,-1.769997,Minor
"13 Tobruk Close, Innsworth",GL3 1QR,Glouc,27-Mar-25,New Build,51.892547,-2.204405,N/A
"13 Upton Gardens, Tetbury",GL8 8AY,Glouc,29-Dec-24,Relet,51.646465,-2.16302,Major
13 Violet Way,ST16 1ZN,S&M,26-Nov-24,New Build,52.838711,-2.130696,N/A
"13 Weaver Crescent, Twigworth",GL2 9SH,Glouc,27-Mar-24,New Build,51.896225,-2.219405,N/A
13 Woburn Lane,B31 5GS,Central,21-Apr-24,New Build,52.406222,-1.989776,N/A
"13 Woodland Terrace, Kingswood",BS15 9PU,WOE,3-Nov-24,Relet,51.459191,-2.504539,Major
"130 Cartwright Way, Cannock",WS11 0LS,S&M,29-Aug-24,Relet,52.674108,-2.034676,Minor
"131 Cooksey Road, Small Heath",B10 0BZ,Central,15-Jul-24,Relet,52.466278,-1.859694,Minor
"131 Cranleigh Court, Yate",BS37 5DN,WOE,8-Apr-24,Relet,51.544576,-2.424801,Minor
131 Meadowsweet Avenue,ST16 1ZF,S&M,4-Dec-24,New Build,52.838688,-2.126569,N/A
133 Meadowsweet Avenue,ST16 1ZF,S&M,4-Dec-24,New Build,52.838688,-2.126569,N/A
"133 Wharf Lane, Solihull",B91 2LF,Central,30-Apr-24,Relet,52.425867,-1.772791,Major
"135 Cranleigh Court Road, Yate",BS37 5DN,WOE,17-Mar-24,Relet,51.544576,-2.424801,Minor
135 Meadowsweet Avenue,ST15 1ZF,S&M,4-Dec-24,New Build,52.83925371,-2.12405966,N/A
136 Worthington Road,WS13 8PG,S&M,15-Oct-24,Relet,52.711981,-1.769622,Major
"137 Canterbury Leys, Tewkesbury",GL20 8BP,Glouc,24-Nov-24,Relet,51.505183,-2.576625,Major
137 Medowsweet Avenue,ST16 1ZF,S&M,4-Dec-24,New Build,52.838688,-2.126569,N/A
139 Meadowsweet Avenue,ST16 1ZF,S&M,4-Dec-24,New Build,52.838688,-2.126569,N/A
"139 New Cheltenham Road, Kingswood",BS15 4RR,WOE,25-Aug-24,Relet,51.466715,-2.49859,Minor
"13a Cranefields, Lichfield",WS13 7HP,S&M,23-Feb-24,Relet,52.691292,-1.831486,Major
13a Oakenfield,WS13 7HZ,S&M,4-Nov-24,Relet,52.693973,-1.839539,Major
"13A Shrubbery Court, Nelson Road, Staple Hill",BS16 5HX,WOE,22-Dec-24,Relet,51.4815,-2.508543,Minor
"14 Bee Orchid Close, Whitchurch",BS14 0UJ,WOE,25-Nov-24,Relet,51.411046,-2.5914,N/A
14 Beech Court,WS6 6QZ,S&M,11-Oct-24,Relet,52.667433,-2.015728,Minor
"14 Betula Close, Cheltenham",GL51 0GT,Glouc,12-Jul-24,New Build,51.917158,-2.125959,N/A
14 Blacksmith Court,HR7 4DE,S&M,18-Nov-24,Relet,52.013587,-1.373273,N/A
14 Blacksmith Court,HR7 4DE,S&M,27-Jan-25,Relet,52.188525,-2.507811,Minor
"14 Blakeley Court, Churchdown",GL3 1HU,Glouc,29-Jun-24,Relet,51.886106,-2.190355,minor
"14 Blakeney Mills, Westerleigh Road, Yate",BS37 4XL,WOE,10-Nov-24,Relet,51.537939,-2.420154,Minor
"14 Bromford Rise, Penn",WV3 0ES,Central,18-May-24,Relet,52.575823,-2.13685,Minor
"14 Buckingham House, Bevan Court, Filton",BS34 7QJ,WOE,30-Jun-24,Relet,51.507126,-2.578121,Minor
14 Cains Close - Kingswood - ,BS15 9ZB,WOE,17-Nov-24,Relet,51.493674,-2.462599,N/A
"14 Catbrook, Chipping Campden",GL55 6DF,Glouc,19-Dec-24,Relet,52.045587,-1.778616,Major
"14 Chamberlayne Close, Stow on the Wold",GL54 1DY,Glouc,9-Jan-25,Relet,51.926032,-1.720966,N/A
"14 Chamberlayne Close, Stow on the Wold",GL54 1DY,Glouc,28-Mar-25,Relet,51.926032,-1.720966,Minor
14 Church Close,WS14 0LS,S&M,18-Nov-24,Relet,52.155546,-0.894394,Minor
"14 Church View, Chipping Sodbury",BS37 6FZ,WOE,29-Apr-24,Relet,51.542611,-2.38964,N/A
14 Cleveland Close,TF4 3UD,S&M,27-Jul-24,Relet,52.66009,-2.481905,Major
"14 Eaglestone Drive, West Haddon",NN6 7DA,Central,1-Sep-24,Relet,52.341947,-1.066735,Minor
14 Feathers Drive,GL15 5GH,Glouc,26-Mar-24,Relet,51.718662,-2.518468,Minor
"14 Forester Close, Cheltenham",GL51 0FU,Glouc,6-Dec-24,New Build,51.913526,-2.107776,N/A
14 Franciscan View,WS13 6QE,S&M,22-Dec-24,Relet,52.680676,-1.832865,Minor
"14 Hampton Close, Cadbury Heath",BS30 8EY,WOE,5-Sep-24,Relet,51.446902,-2.486302,N/A
"14 Hatherway Close, Yate",BS37 7GZ,WOE,20-Mar-25,Relet,51.558458,-2.409454,N/A
"14 Hopper Avenue, SUA",CV37 9GQ,Central,30-Apr-24,New Build,52.195083,-1.741657,N/A
14 Hornbeam Way,WV11 2SH,S&M,20-Feb-25,Relet,52.629783,-2.051838,Minor
14 Jubilee Crescent,B64 7DJ,Central,2-May-24,New Build,52.468987,-2.086271,N/A
14 Kingston Grange,CV33 8AS,Central,28-Nov-24,New Build,52.200359,-1.479309,N/A
14 Lanes Court Tewkesbury,GL20 5JH,Glouc,28-Jul-24,Relet,51.990491,-2.153914,Major
14 Lewis Court,B79 8BE,S&M,16-Dec-24,Relet,52.646485,-1.702229,Minor
14 Lilliput Court Chipping Sodbury,BS37 6EB,WOE,2-Jun-24,Relet,51.534015,-2.398031,Major
"14 Little Shoe Broad, Blockley",GL56 9AX,Glouc,24-Jun-24,Relet,52.015689,-1.753034,minor
"14 Lowfield Road, Tetbury",GL8 8AT,Glouc,24-Dec-24,Relet,51.644954,-2.163809,Major
14 Luton Close Yate,BS37 7NJ,WOE,11-Jul-24,Relet,51.558543,-2.421323,N/A
"14 Mangotstone Way, Stonehouse",GL10 3XP,Glouc,30-Jan-25,New Build,51.757665,-2.302851,N/A
"14 Marshfield Road. Tormarton, Badminton",GL9 1JQ,WOE,14-Jul-24,Relet,51.505554,-2.332385,Major
"14 Neston Close, Swindon",SN3 6GH,WOE,24-Jun-24,Relet,51.52819,-1.727553,N/A
14 Newman Gardens,CV33 8BZ,Central,10-Dec-24,New Build,52.199674,-1.478951,N/A
"14 Oakridge Close, Kingswood",BS15 9RF,WOE,26-May-24,Relet,51.458294,-2.489258,Major
"14 Oakridge Road, Northfield",B31 3DE,Central,5-Feb-25,Relet,52.406934,-1.947389,Minor
"14 Old Mill Road, Cheltenham",GL51 0GQ,Glouc,28-Mar-24,New Build,51.916826,-2.125013,N/A
"14 Oldbury House, Tewkesbury",GL20 5NW,Glouc,30-Jun-24,Relet,51.995428,-2.152591,Minor
"14 Pleasant House, Pleasant Road, Staple Hill",BS16 5HZ,WOE,12-May-24,Relet,51.483447,-2.509027,Minor
"14 Poinsettia Way, Newent",GL18 1LB,Glouc,11-Jul-24,Relet,51.922383,-2.4046,Minor
"14 Pucklechurch Close, Gloucester",GL2 2HB,Glouc,3-Nov-24,Relet,51.815901,-2.265973,Major
14 Quern Stone Lane,B50 4GX,Central,29-Nov-24,Relet,51.708802,-1.965233,Minor
14 Reed Close Twigworth,GL2 9SG,Glouc,25-Sep-24,New Build,51.897162,-2.218247,N/A
14 Rothwell Close,TF2 9GB,S&M,16-Apr-24,Relet,52.694307,-2.437508,Minor
14 Saville Close,TF1 2DG,S&M,28-Jun-24,Relet,52.700553,-2.524289,Minor
"14 Scholars Court, cheltenham",GL51 8PD,Glouc,24-Oct-24,Relet,51.904245,-2.090943,Minor
"14 St Barnabas House, Church Avenue, Warmley",BS30 5HY,WOE,10-Mar-24,Relet,51.457428,-2.469617,Minor
"14 Stone Cross Place, Kempsford",GL7 4GX,Glouc,11-Jun-24,New Build,51.671814,-1.775989,N/A
14 Sycamore Court,GL51 0JY,Glouc,24-Sep-24,Relet,51.903818,-2.124344,Minor
14 The Pleydells Ampney Crucis,GL7 5TE,Glouc,18-Jun-24,Relet,51.719257,-1.900171,Minor
"14 Tiddesley Avenue, Halesowen",B63 2FF,Central,24-Oct-24,New Build,52.462075,-2.096118,N/A
14 Topham Drive,WS12 0AA,S&M,4-Feb-25,New Build,52.711526,-1.974347,N/A
"14 Treeleaze, Lawns Road, Yate",BS37 5AZ,WOE,24-Mar-24,Relet,51.542143,-2.41089,Minor
"14 Ventor Road, Filton",BS34 7HF,WOE,14-Apr-24,Relet,51.509117,-2.564357,Minor
14 Victoria Drive,B78 3QH,S&M,5-Dec-24,Relet,52.614636,-1.703051,Major
14 Washington Road,GL3 1QJ,Glouc,21-Feb-25,New Build,51.892063,-2.203851,N/A
"14 Westfield, Stonehouse",GL10 3XT,Glouc,28-Mar-25,New Build,51.756325,51.756325,N/A
14 White Bryony Drive,TF1 6BD,S&M,28-Mar-24,New Build,52.717003,-2.519851,N/A
14 Woburn Lane,B31 5GS,Central,22-Apr-24,New Build,52.406222,-1.989776,N/A
14 Woods Lane Cradley Heath,B64 7AN,Central,11-Apr-24,New build,52.468735,-2.087006,N/A
14 Woodview Rise,B90 8DQ,Central,30-Oct-24,New Build,52.373264,-1.803106,N/A
"14 Zinnia Close, Churchdown",GL3 1LF,Glouc,21-Feb-25,Relet,51.887785,-2.191757,Major
141 Meadowsweet Avenue,ST16 1ZF,S&M,4-Dec-24,New Build,52.838688,-2.126569,N/A
"142 Conygre Grove, Filton",BS34 7HU,WOE,16-Jun-24,Relet,51.510356,-2.562787,Major
"143 Cranleigh Court Road, Yate",BS37 45DP,WOE,11-Dec-24,Relet,51.54542454,2.424497605,Major
143 Meadowsweet Avenue,ST16 1ZF,S&M,11-Dec-24,New Build,52.838688,-2.126569,N/A
143 new cheltenham,BS15 4RR,WOE,16-Jun-24,Relet,51.466715,-2.49859,Minor
145 Meadowsweet Avenue,ST16 1ZF,S&M,11-Dec-24,New Build,52.83925371,-2.12405966,N/A
"145 Queens road, Tewkesbury",GL20 5EP,Glouc,26-May-24,Relet,51.984433,-2.152044,Minor
"146 Queens Road, Tewkesbury",GL20 5ET,Glouc,16-Feb-25,Relet,51.983542,-2.152682,Minor
146 Redcar Road,NN12 6LZ,Central,5-Jan-25,Relet,52.121914,-0.977518,Minor
147 Meadowsweet Avenue,ST16 1ZF,S&M,11-Dec-24,New Build,52.838688,-2.126569,N/A
"148 Queens Road, Tewkesbury",GL20 5EU,Glouc,16-Feb-24,Relet,51.983253,-2.154166,Major
149 Meadowsweet Avenue,ST16 1ZF,S&M,11-Dec-24,New Build,52.838688,-2.126569,N/A
"149 Queens Road, Priors Park Tewkesbury",GL20 5EP,Glouc,31-Mar-24,Relet,51.984433,-2.152044,Minor
"149 Tower Road, Erdington",B23 6GJ,Central,23-Jul-24,Relet,52.520578,-1.853464,N/A
"149 Tower Road, Erdington",B23 6GJ,Central,2-Oct-24,Relet,52.520578,-1.853464,Minor
"14A Woodchester, Kingswood",BS15 4XY,WOE,7-Apr-24,Relet,51.475138,-2.501317,Minor
14b Hewitt Close,WS13 7JH,S&M,9-Jan-25,Relet,52.694925,-1.832404,Minor
"15 Abbot Richard Lane, Moreton in Marsh",GL56 0EZ,Glouc,17-May-24,New Build,51.986751,-1.68979,N/A
"15 Abbots Leys Road, Winchcombe",GL54 5QG,Glouc,4-Feb-24,Relet,51.954482,-1.972743,Major
15 Ascote Way,CV47 1GH,Central,4-Oct-24,Relet,52.248602,-1.38176,Minor
"15 Ash Road, Northway",GL20 8QA,Glouc,17-Nov-24,Relet,51.84565,-2.150887,Major
"15 Avon Crescent, Wickwar",GL128NL,WOE,15-May-24,Relet,51.595878,-2.39723,Minor
15 Baker Close,WS7 4GU,S&M,10-Jan-25,Relet,52.675373,-1.932989,Major
15 Balthazar Close,CV34 6FT,Central,4-Jan-25,Relet,52.269926,-1.542154,Major
"15 Bee Orchid Close, Whitchurch",BS14 0UJ,WOE,10-Feb-25,Relet,51.411046,-2.5914,N/A
"15 Betula Close, Cheltenham",GL51 0GT,Glouc,12-Jul-24,New Build,51.917158,-2.125959,N/A
"15 Blencowe Crescent, Steeple Claydon",MK18 2GY,Central,17-Jun-24,Relet,51.939349,-0.976651,Minor
15 Bloomfield Crescent,WS13 7JL,S&M,14-Nov-24,Relet,52.695148,-1.831367,Minor
"15 Bromwynd Close, Blakenhall",WV2 4PQ,Central,23-Jun-24,Relet,52.570144,-2.134737,Minor
15 Butterball Court,CV37 9GG,Central,10-Dec-24,Relet,52.202339,-1.737884,Minor
"15 Buxton Road, Yate",BS37 7NP,WOE,29-Jan-25,Relet,51.558458,-2.419822,N/A
"15 Charlton Court, Patchway",BS34 5LJ,WOE,28-Apr-24,Relet,51.538125,-2.584311,Minor
15 Charnborough Court Oakengates - Telford,TF2 6NB,S&M,23-Oct-24,Relet,52.696713,-2.454904,Minor
"15 Clarkia Close, Churchdown",GL3 1LE,Glouc,20-Nov-24,Relet,51.411046,-2.5914,Major
15 Cypress Square,B27 6NJ,Central,6-Feb-24,Relet,52.453885,-1.82268,Minor
15 David Drive,NN6 7DH,Central,9-Apr-24,Relet,52.339696,-1.066269,Minor
"15 Dennisworth, Pucklechurch",BS16 9QT,WOE,7-Apr-24,Relet,51.48384,-2.438969,N/A
"15 Dennisworth, Pucklechurch",BS16 9QT,WOE,20-Mar-25,Relet,51.48384,-2.438969,Minor
"15 Eliot Street, Nechells, Birmingham",B7 5LD,Central,5-Aug-24,Relet,52.503644,-1.86286,Minor
15 Emery Place,B97 4FE,S&M,15-May-24,Relet,52.303334,-1.941755,Minor
15 Epsom Way,OX26 1BN,Central,24-Feb-25,Relet,51.895669,-1.169564,Minor
"15 Farmstead Way, Moreton in Marsh",GL56 0EU,Glouc,27-Jun-24,New Build,51.985859,-1.689287,N/A
"15 Foremarke Road, Cheltenham",GL54 5GL,Glouc,14-Feb-25,New Build,51.95913,-1.971916,N/A
"15 Forester Close, Cheltenham",GL51 0FU,Glouc,6-Dec-24,New Build,51.913526,-2.107776,N/A
"15 Golding Close, Almondsbury",BS10 7JX,WOE,5-Sep-24,Relet,51.516738,-2.623669,N/A
"15 Grace Court, Dial Lane, Downend",BS16 5UP,WOE,29-Sep-24,Relet,51.487836,-2.506641,Minor
15 Green Templeton Gardens,WS11 2TB,S&M,29-Nov-24,New Build,52.695783,-2.02824,N/A
"15 Haddrell Court, Vattingstone Lane, Alveston",BS35 3NL,WOE,28-Apr-24,Relet,51.591986,-2.537277,Major
"15 Hampton close, Cadbury Heath",BS30 8EY,WOE,26-Sep-24,Relet,51.446902,-2.486302,N/A
"15 Hednesford Avenue, Quedgeley",GL2 2LD,Glouc,14-Nov-24,New Build,51.818724,-2.273766,N/A
"15 Kingston Close, Mangotsfield",BS16 9BH,WOE,11-Aug-24,Relet,51.492645,-2.490072,Minor
15 Lucinia Mews,GL51 8DR,Glouc,1-Mar-24,Relet,51.90568,-2.105423,Major
15 Maythorne Close Sutton Hill - Telford,TF7 4DH,S&M,6-Sep-24,Relet,52.63249,-2.438502,Minor
15 middle field road,B31 3EH,Central,29-Nov-23,Relet,52.407183,-1.950116,Major
"15 Miller Place, Cheltenham",GL50 4FJ,Glouc,2-Nov-24,Relet,51.904457,-2.081648,Minor
"15 Neston Close, Swindon",SN3 6GH,WOE,24-Jun-24,Relet,51.52819,-1.727553,N/A
"15 Oakhanger Lane, Kingsway",GL2 2FS,Glouc,17-Jan-25,Relet,51.818266,-2.2629,Minor
"15 Oakridge Close, Kingswood",BS15 9RF,WOE,22-Aug-24,Relet,51.458294,-2.489258,Minor
15 Oldlands Avenue Coalpit Heath,BS36 2SF,WOE,16-Jun-24,Relet,51.526851,-2.472247,Minor
"15 Peache Court,  Peache Road, Downend",BS16 5TP,WOE,29-Dec-24,Relet,51.488784,-2.49981,N/A
"15 Pinewood, Kingswood",BS15 4RW,WOE,19-Jan-25,Relet,51.467629,-2.49513,Major
"15 Rectory Close, Ashleworth",GL19 4JT,Glouc,23-Sep-24,Relet,51.931357,-2.277069,Minor
15 Reed Close Twigworth,GL2 9SG,Glouc,25-Sep-24,New Build,51.897162,-2.218247,N/A
"15 Southside, Tetbury",GL8 8PP,Glouc,20-Jan-25,Relet,51.603943,-2.158189,Minor
"15 Springfield Close, Mangotsfield",BS16 9BZ,WOE,9-Feb-25,Relet,51.493484,-2.487243,Minor
15 Squirrel Court,WV16 4BS,S&M,6-Sep-24,Relet,52.534491,-2.423829,Minor
"15 Stone Cross Place, Kempsford",GL7 4GX,Glouc,11-Jun-24,New Build,51.671814,-1.775989,N/A
"15 The Hawthornes, Staple Hill",BS16 5PQ,WOE,26-May-24,Relet,51.480259,-2.495455,Minor
"15 The Plies, Fairford",GL7 4AJ,Glouc,10-Jun-24,Relet,51.706187,-1.77725,Minor
"15 The Sidings, Shipston on Stour",CV36 9GQ,Central,30-May-24,Relet,52.06848967,-1.627930087,Minor
15 Tiddesley Avenue,B63 2FF,Central,28-Nov-24,New Build,52.462075,-2.096118,N/A
"15 Tile Croft, Stourbridge",DY9 7AA,Central,29-Feb-24,Relet,52.454779,-2.131956,Major
15 Topham Drive,WS12 0AA,S&M,5-Feb-25,New Build,52.711526,-1.974347,N/A
"15 Turnpike, Moulton",NN3 7DJ,Central,7-May-24,Relet,52.291015,-0.83921,Minor
15 Valley Court,WV16 5DW,S&M,22-Aug-24,Relet,52.534151,-2.425801,Minor
15 Violet Way,ST16 1ZN,S&M,26-Nov-24,New Build,52.838711,-2.130696,N/A
"15 Ware Court, Harcombe Road",BS36 1JA,WOE,31-Mar-24,Relet,51.51835,-2.507758,Major
"15 Warwick Place, Tewkesbury",GL20 5EQ,Glouc,4-Jul-24,Relet,51.986635,-2.152736,Minor
15 Weaver Crescent,GL2 9SH,Glouc,27-Mar-24,New Build,51.896225,-2.219405,N/A
"15 Wilson Road, Coseley",WV14 9EN,Central,9-Apr-24,Relet,52.538119,-2.086894,Minor
15 Woburn Lane,B31 5GS,Central,22-Apr-24,New Build,52.406222,-1.989776,N/A
15 Woodview Rise,B90 8DQ,Central,30-Oct-24,New Build,52.373264,-1.803106,N/A
"15 Wychwood, Kingswood",BS15 9SR,WOE,10-Mar-24,Relet,51.453276,-2.504114,N/A
"15 Wychwood, Kingswood",BS15 9SR,WOE,8-Sep-24,Relet,51.453276,-2.504114,Minor
"150 Queens Road, Tewkesbury",GL20 5EU,Glouc,27-Oct-24,Relet,51.983253,-2.154166,Major
151 Meadowsweet Avenue,B38 9RB,S&M,11-Dec-24,New Build,52.740729,-1.878501,NA
153 Farnborough Drive,NN11 8BS,Central,13-Jan-25,Relet,52.277953,-1.176544,Minor
"153 Farnborough Drive, Daventry",NN11 8BS,Central,5-Aug-24,Relet,52.277953,-1.176544,Major
153 Meadowsweet Avenue,ST16 1ZF,S&M,11-Dec-24,New Build,52.838688,-2.126569,N/A
154 Carinthia Gardens,WV3 0QS,Central,27-Mar-25,Relet,52.583919,-2.140004,Minor
"155 Cranleigh Court, Yate",BS37 5DP,WOE,2-Jun-24,Relet,51.545663,-2.425056,Major
155 Meadowsweet Avenue,ST16 1ZF,S&M,11-Dec-24,New Build,51.985912,-2.155595,N/A
"155 Queens Road, Tewkesbury",GL20 5EP,Glouc,12-Feb-25,Relet,51.984433,-2.152044,Minor
157 Meadowsweet Avenue,ST16 1ZF,S&M,11-Dec-24,New Build,52.838688,-2.126569,N/A
"157 new cheltenham road, kingswood",bs15 4RR,WOE,2-Jun-24,Relet,51.466715,-2.49859,major
"158 Redcar Road, Bicester",OX26 1BS,Central,26-Aug-24,Relet,51.895367,-1.167506,Minor
"159 Meadowsweet Avenue,",ST16 1ZF,S&M,12-Mar-25,New Build,52.838688,-2.126569,N/A
"15a Oldlands Avenue, Coalpit Heath",BS36 2SF,WOE,9-Aug-24,Relet,51.526851,-2.472247,Minor
"16 Albert Morgan Close, Stonehouse",GL10 3WR,Glouc,25-Jun-24,New Build,51.759525,-2.2963,N/A
16 Aubrey Meads,BS30 6LQ,WOE,15-Sep-24,Relet,51.424431,-2.455874,Major
"16 Baker Drive, Wellsbourne",CV35 9RQ,Central,22-Feb-24,Relet,52.193804,-1.603118,Major
"16 Beazer Close, Staple Hill",BS16 4RA,WOE,19-Jan-25,Relet,51.476638,-2.50754,Major
"16 Bee Orchid Close, Whitchurch",BS14 0UJ,WOE,25-Nov-24,Relet,51.46166,-2.488315,N/A
"16 Betula Close, Cheltenham",GL51 0GT,Glouc,12-Jul-24,New Build,51.917158,-2.125959,N/A
"16 Blencowe Crescent, Steeple Claydon",MK18 2GY,Central,18-Jul-24,Relet,51.939349,-0.976651,Minor
"16 Bluebell Gardens , Savages Wood Road, Bradley Stoke",BS32 8EF,WOE,1-Dec-24,Relet,51.53449519,-2.547818566,N/A
"16 Cherry Drive, Tidbury Green",B90 1UP,Central,25-Jul-24,Relet,52.379599,-1.851087,Minor
16 Church Close,WS14 0LS,S&M,8-Jan-25,Relet,52.63739,-1.838505,Major
"16 Church view, Chipping Sodbury",BS37 6FU,WOE,29-Apr-24,Relet,51.542821,-2.391588,N/A
"16 Clyde Road, Brockworth",GL3 4JW,Glouc,21-Apr-24,Relet,51.846321,-2.153386,Major
16 Coronation Avenue,B78 3NW,S&M,5-Feb-24,Relet,52.617113,-1.723653,N/A
16 Coronation Avenue,B78 3NW,S&M,22-Sep-24,Relet,52.617113,-1.723653,Major
"16 Cranham Close, Kingswood",BS15 4QB,WOE,24-Mar-24,Relet,51.470089,-2.495691,Major
"16 Dunstall House, Moreton in Marsh",GL56 0DR,Glouc,24-Jun-24,Relet,51.986982,-1.703299,Minor
"16 Foremarke Road, Cheltenham",GL54 5GL,Glouc,26-Mar-25,new Build,51.95913,-1.971916,N/A
16 Hagley Park Gardens,WS15 2GY,S&M,25-Jul-24,Relet,52.753408,-1.942619,Minor
"16 Hampton close, Cadbury Heath",BS30 8EY,WOE,26-Sep-24,Relet,51.446902,-2.486302,N/A
"16 Harcombe Road, Winterbourne",BS36 1HH,WOE,8-May-24,Relet,51.518721,-2.505168,Major
"16 Hawkesley Drive, Little Sotke",BS34 6LE,WOE,3-Mar-24,Relet,51.525183,-2.55566,Minor
"16 Hazel View, Kempsford",GL7 4FA,Glouc,7-Mar-25,Relet,51.673254,-1.778279,Minor
16 Heather Bank,SY11 3PT,S&M,5-Jun-24,Relet,52.896563,-3.03173,Minor
"16 Hilltop Gardens, Soundwell",BS16 4RZ,WOE,5-Jan-25,Relet,51.472308,-2.507016,Minor
"16 Hopper Avenue, SUA",CV37 9GQ,Central,30-Apr-24,New Build,52.195083,-1.741657,N/A
"16 Hornbeam Close, Nuneaton",CV10 9FD,Central,24-Jun-24,Relet,52.532122,-1.507219,Minor
16 Hyde Gardens,B63 2FG,Central,12-Dec-24,New Build,52.462938,-2.096282,N/A
"16 Isambard Place, Wellington Street, Swindon",SN1 1DX,WOE,28-Sep-24,Relet,51.564605,-1.783943,Major
16 jubilee Crescent,B64 7DJ,Central,1-May-24,New Build,52.468987,-2.086271,N/A
16 Keepers Crescent,TF2 9UQ,S&M,22-Nov-24,Relet,51.709781,-1.962497,Major
16 Kingston Grange,CV33 8AS,Central,28-Nov-24,New Build,52.200359,-1.479309,N/A
"16 Luton Close, Yate",bs37 7nj,WOE,11-Jul-24,Relet,51.558543,-2.421323,N/a
"16 Mangotstone Way, Stonehouse",GL10 3XP,Glouc,30-Jan-25,New Build,51.757665,-2.302851,N/A
"16 Marsh Terrace, Shurdington",GL51 4TE,Glouc,25-Aug-24,Relet,51.867329,-2.118209,Major
16 Maythorne Close,TF7 4DH,S&M,2-Apr-24,Relet,52.63249,-2.438502,Minor
16 Millmoor Avenue,WS15 4BL,S&M,21-Nov-24,Relet,51.522172,-2.581036,Major
16 Mount Dairy Farm Lane,B90 4LL,Central,11-Mar-24,Relet,52.380641,-1.818088,Minor
16 Mountbatten Close,WS7 2FD,S&M,20-Sep-24,Relet,52.688614,-1.931002,Major
"16 Neston Close, Swindon",SN3 6GH,WOE,24-Jun-24,Relet,51.52819,-1.727553,N/A
"16 Newman Close, Westerleigh",BS37 8QT,WOE,16-Feb-25,Relet,51.516051,-2.435517,Minor
"16 Oakridge Road, Northfield",B31 3DE,Central,27-Feb-25,Relet,52.406934,-1.947389,Minor
"16 Old Mill Road, Cheltenham",GL51 0GQ,Glouc,28-Mar-24,New Build,51.916826,-2.125013,N/A
"16 Parklands, Churchdown",GL3 1JS,Glouc,14-Jul-24,Relet,51.886377,-2.189964,Major
"16 Partridge Croft, Lichfield",WS13 6SJ,S&M,1-Apr-24,Relet,52.686233,-1.820676,Minor
"16 Pleasant House, Pleasant Road, Staple Hill",BS16 5HZ,WOE,1-Dec-24,Relet,51.483447,-2.509027,Minor
16 Poachers Way Codsall,WV8 2BH,S&M,7-Feb-25,Relet,52.620459,-2.192052,Minor
16 Posthole Way,B50 4GY,Central,17-Feb-25,Relet,52.166908,-1.868215,Minor
16 Reed Close Twigworth,GL2 9SG,Glouc,25-Sep-24,New Build,51.897162,-2.218247,N/A
16 Saville Close,TF1 2DG,S&M,30-Jun-24,Relet,52.700553,-2.524289,Major
"16 Shrubbery Court, Berkeley Road, Staple Hill",BS16 5LH,WOE,12-Jan-25,Relet,51.482894,-2.507912,Major
16 Station Crescent,SY7 9RR,S&M,9-Mar-25,Relet,52.443214,-2.837067,Minor
"16 Stone Cross Place, Kempsford",GL7 4GX,Glouc,11-Jun-24,New Build,51.671814,-1.775989,N/A
16 Swain Close,SY4 5NZ,S&M,2-Dec-24,Relet,52.852508,-2.732446,Minor
"16 The Close, Soundwell",BS16 4PH,WOE,5-Dec-24,relet,51.474198,-2.510766,Minor
16 The Lukes,DY2 0DH,Central,3-Nov-24,Relet,52.475452,-2.084738,Minor
16 The Meadow,TF9 3QF,S&M,17-Feb-25,Relet,52.849405,-2.568639,Minor
"16 Tiddelsey Avenue, Halesowen",B63 2FF,Central,24-Oct-24,New Build,52.462075,-2.096118,N/A
16 Topham Drive,WS12 0AA,S&M,4-Feb-25,New Build,52.711526,-1.974347,NA
16 Upton Lane,SY2 5RR,S&M,31-Jan-24,Relet,52.712031,-2.722778,Minor
16 Washington Road,GL3 1QJ,Glouc,21-Feb-25,New Build,51.892063,-2.203851,N/A
"16 Westfield, Stonehouse",GL10 3XT,Glouc,28-Mar-25,New Build,51.756325,51.756325,N/A
"16 Wheat Hill, Tetbury",GL8 8RG,Glouc,13-May-24,Relet,51.643959,-2.167954,Minor
16 White Bryony Drive,TF1 6BD,S&M,28-Mar-24,New Build,52.717003,-2.519851,N/A
"16 Whitefields, Chipping Sodbury",BS37 6LF,WOE,16-Feb-25,Relet,51.537848,-2.386314,Minor
16 woburn Lane,B31 5GS,Central,21-Apr-24,New Build,52.406222,-1.989776,N/A
16 Woodview Rise,B90 8DQ,Central,30-Oct-24,New Build,52.373264,-1.803106,N/A
16 Zinnia Close Churchdown,GL3 1LF,Glouc,13-Jun-24,Relet,51.887785,-2.191757,Major
161 Meadowsweet Avenue,ST16 1ZF,S&M,12-Mar-25,New Build,52.838688,-2.126569,N/A
"163 Meadowsweet Avenue,",ST16 1ZF,S&M,12-Mar-25,New Build,52.838688,-2.126569,N/A
"165 Meadowsweet Avenue,",ST16 1ZF,S&M,12-Mar-25,New Build,52.838688,-2.126569,N/A
"167 Augustines Walk, Lichfield",WS13 7PZ,S&M,17-Feb-24,Relet,52.696863,-1.836273,Minor
"167 Meadowsweet Avenue,",ST16 1ZF,S&M,12-Mar-25,New Build,52.838688,-2.126569,N/A
168 Augustines Walk,WS13 7PZ,S&M,13-Nov-24,Relet,52.696863,-1.836273,Major
169 Bismore Road,OX16 1JN,Central,2-Mar-25,Relet,52.082678,-1.363886,Minor
"16a Butler Road, Solihull",B92 7QL,Central,27-Apr-24,Relet,52.447354,-1.797841,Major
"17 Abbot Richard Lane, Moreton in Marsh",GL56 0EZ,Glouc,16-May-24,New Build,51.986751,-1.68979,N/A
"17 Albert Morgan Close, Stonehouse",GL10 3WR,Glouc,25-Jun-24,New Build,51.759525,-2.2963,N/A
17 Baker Close,WS7 4GU,S&M,11-May-24,Relet,52.675373,-1.932989,Minor
17 Bakewell Gardens,WV10 0DF,Central,17-Jul-24,Relet,52.593473,-2.114106,Minor
"17 Bee Orchid Close, Whitchurch",BS14 0UJ,WOE,21-Jan-25,Relet,51.411046,-2.5914,N/A
17 Blossomville Way,B27 6LF,Central,5-Feb-25,Relet,52.453744,-1.824961,Minor
17 Bloxhams Orchard,GL19 4JB,Glouc,7-Feb-24,Relet,51.92857,-2.273289,Major
17 Bremridge Close,CV35 8DE,Central,16-May-24,Relet,52.239495,-1.607576,Minor
17 Bridgeside,GL5 3ER,Glouc,9-Mar-24,Relet,51.742322,-2.240546,Minor
17 Browning Grove,WV6 7QA,S&M,23-Jul-24,Relet,52.597376,-2.2026,Minor
"17 Buxton Road, Yate",BS37 7NP,WOE,29-Jan-25,relet,51.558458,-2.419822,N/A
"17 Coombe House, Tetbury",GL8 8DS,Glouc,24-Jan-25,Relet,51.638616,-2.163209,Minor
"17 Crouch Court, Priors Park",GL20 5TH,Glouc,4-Sep-24,Relet,51.986206,-2.157569,Minor
"17 Farmstead Way, Moreton in Marsh",GL56 0EU,Glouc,27-Jun-24,New Build,51.985859,-1.689287,N/A
"17 Foremarke Road, Cheltenham",GL54 5GL,Glouc,14-Feb-25,New Build,51.95913,-1.971916,N/A
"17 Forester Close, Cheltenham",GL51 0FU,Glouc,24-Jan-25,New Build,51.913526,-2.107776,N/A
"17 Grace Drive, Kingswood",BS15 4LJ,WOE,5-Jan-25,relet,51.464367,-2.490445,Minor
17 Green Templeton Gardens,WR11 2TB,S&M,29-Nov-24,New Build,52.077129,-1.955793,N/A
"17 Hampton close, Cadbury Heath",BS30 8EY,WOE,26-Sep-24,relet,51.446902,-2.486302,N/A
"17 Haswell Road, Crick",NN6 7WQ,Central,31-Aug-24,Relet,52.350553,-1.140431,Minor
"17 Haynes House, Haynes Lane, Staple Hill",BS16 5JG,WOE,17-Mar-25,Relet,51.48175,-2.508417,Minor
"17 Hednesford Avenue, Quedgeley",GL2 2LD,Glouc,14-Nov-24,New Build,51.818724,-2.273766,N/A
17 Hexton Close,B90 1ET,Central,14-Nov-24,Relet,52.406457,-1.858722,Major
"17 Kingrove Crescent, Chipping sodbury",BS37 6DG,WOE,24-Mar-24,Relet,51.535668,-2.387608,Major
"17 Ladden court, Thornbury",BS35 2DQ,WOE,1-Sep-24,Relet,51.604125,-2.51693,Major
"17 Lias Close, Southam",CV47 0NG,Central,30-Jun-24,Relet,52.261467,-1.390727,Minor
"17 Neston Close, Swindon",SN3 6GH,WOE,24-Jun-24,New Build,51.52819,-1.727553,N/A
17 Oak Drive,GL20 7PN,S&M,14-Jan-24,Relet,52.029093,-2.110239,Minor
"17 Par Four Lane, Lydney",GL15 5GB,Glouc,27-Dec-24,Relet,51.719759,-2.518539,Minor
"17 Pendennis House, Nelson Road",BS16 5HY,WOE,19-May-24,Relet,51.482928,-2.508891,Major
"17 Quaker Court, Thornbury",BS35 2NY,WOE,3-Jun-24,Relet,51.608651,-2.524289,Minor
"17 Red Admiral Way, thornbury",BS35 1FH,WOE,21-Jul-24,Relet,51.620977,-2.518812,Minor
17 Reed Close Twigworth,GL2 9SG,Glouc,25-Sep-24,New Build,51.897162,-2.218247,N/A
17 Shipway Court,GL52 8HY,Glouc,23-Sep-24,Relet,51.949263,-2.06112,Minor
"17 Shortwood View, Kingswood",BS15 4DD,WOE,10-Nov-24,Relet,51.462902,-2.496792,Minor
17 Southside,GL8 8PP,Glouc,25-Sep-24,Relet,51.603943,-2.158189,Minor
"17 Stinchcombe, Yate",BS37 4DY,WOE,8-Dec-24,Relet,51.538478,-2.412604,Minor
"17 Stone Cross Place, Kempsford",GL7 4GX,Glouc,11-Jun-24,New Build,51.671814,-1.775989,N/A
17 Swallow Place,WR9 7HD,S&M,19-Aug-24,Relet,52.250515,-2.138979,Minor
17 Teal Close,TF3 1NY,S&M,28-May-24,Relet,52.648313,-2.438025,Minor
"17 The Leaze, Cirencester",GL7 5UL,Glouc,21-Jun-24,Relet,51.667788,-1.931892,Minor
17 Tiddesley Avenue,B63 2FF,Central,28-Nov-24,New Build,52.462075,-2.096118,N/A
17 Topham Drive,WS12 0AA,S&M,4-Feb-25,New Build,52.711526,-1.974347,N/A
"17 Townwell  Cromhall, Wotton Under Edge",GL12 8AQ,WOE,10-Nov-24,Relet,51.614121,-2.437856,NA
17 Victoria Drive,B78 3QH,S&M,6-May-24,Relet,52.614636,-1.703051,Minor
17 Violet way,ST16 1ZN,S&M,26-Nov-24,New Build,52.838711,-2.130696,N/A
17 Virginia Close,GL20 8PL,Glouc,18-Sep-24,Relet,52.004268,-2.110303,Minor
"17 Weir House, 93 Whitby Road, Bristol",BS4 4AR,WOE,28-Jul-24,Relet,51.4502,-2.554044,Minor
17 Wharf Lane,B64 6SL,Central,28-Dec-24,Relet,52.471281,-2.053285,Minor
"17 Wilcox Gardens, Wickwar",GL12 8FS,WOE,19-May-24,Relet,51.584098,-2.397976,Minor
17 Windridge Court,SY11 1HQ,S&M,29-Feb-24,Relet,52.863439,-3.048814,Minor
171 Meadwosweet Avenue,ST16 1ZF,S&M,19-Feb-25,New Build,52.838688,-2.126569,N/A
173 Meadwosweet Avenue,ST16 1ZF,S&M,19-Feb-25,New Build,52.838688,-2.126569,N/A
175 Meadwosweet Avenue,ST16 1ZF,S&M,19-Feb-25,New Build,52.838688,-2.126569,N/A
176 Pauls Walk,WS13 7PY,S&M,8-Nov-24,Relet,52.696709,-1.835268,Major
177 Meadwosweet Avenue,ST16 1ZF,S&M,19-Feb-25,New Build,52.838688,-2.126569,N/A
179 Meadwosweet Avenue,ST16 1ZF,S&M,19-Feb-25,New Build,52.838688,-2.126569,N/A
"17a Selbourne Crescent, Wolverhampton",WV1 2EB,Central,30-Apr-24,Relet,52.581619,-2.09308,Minor
"18 Albert Morgan Close, Stonehouse",GL10 3WR,Glouc,25-Jun-24,New Build,51.759525,-2.2963,N/A
"18 Almond Way, Downend",BS16 5QN,WOE,14-Apr-24,Relet,51.483013,-2.493065,Major
18 Barratts Orchard,DY14 8 GH,S&M,6-Mar-24,Relet,52.379505,-2.483698,Major
"18 Barton Court, Tewkesbury",GL20 5RL,Glouc,23-Feb-25,Relet,51.9919,-2.148851,Major
"18 Bee Orchid Close, Whitchurch",BS14 0UJ,WOE,25-Nov-24,Relet,51.411046,-2.5914,N/A
"18 Burroughs Close, Brockworth",GL3 4GU,Glouc,17-Nov-24,Relet,51.887645,-2.190903,Minor
18 Cartwright Way,WS11 0LS,S&M,20-Jul-24,Relet,52.674108,-2.034676,Minor
"18 Charfield Green, Charfield, Wotton Under Edge",GL12 8SZ,WOE,12-Jan-25,Relet,51.62585,-2.398792,Major
18 Charnborough Court,TF7 6NB,S&M,16-Feb-24,Relet,52.696908,-2.45472,Minor
"18 Church View, Chipping Sodbury",BS37 6FU,WOE,29-Apr-24,Relet,51.542821,-2.391588,N/A
"18 Davey Walk, Tewkesbury",GL20 8UP,Glouc,7-Apr-24,Relet,52.000987,-2.110236,Major
18 Dewberry Road,B90 1UK,Central,27-Feb-25,Relet,52.37823457,-1.852374214,Minor
18 Dickens Drive,DY13 0SH,S&M,28-Nov-24,Relet,52.490699,-1.756891,Minor
"18 Eastbury Close, Thornbury",BS35 1DF,WOE,28-Nov-24,Relet,51.707177,-1.977463,Major
"18 Forester Close, Cheltenham",GL51 0FU,Glouc,24-Jan-25,New Build,51.913526,-2.107776,N/A
"18 Freeminers Way, Cinderford",GL14 2PF,Glouc,5-Aug-24,Relet,51.826183,-2.495557,Major
"18 Grace Court, Dial Lane, Downend",BS16 5UP,WOE,18-Feb-24,Relet,51.487836,-2.506641,Major
18 Green Templeton Gardens,WR11 2TB,S&M,11-Dec-24,New Build,52.077129,-1.955793,N/A
"18 Hampton close, Cadbury Heath",BS30 8EY,WOE,26-Sep-24,Relet,51.446902,-2.486302,N/A
"18 Hatherway Close, Yate",BS37 7GZ,WOE,20-Mar-25,Relet,51.56524019,-2.416600036,N/A
"18 Hillside Court, Great Barr",B43 6NF,Central,19-Jul-24,Relet,52.550438,-1.941423,Minor
"18 Hopper Avenue, SUA",CV37 9GQ,Central,30-Apr-24,New Build,52.195083,-1.741657,N/A
18 Hyde Gardens,B63 2FG,Central,12-Dec-24,New Build,52.462938,-2.096282,N/A
"18 Jubilee Crescent, Cradley Heath",B64 7DJ,Central,19-Apr-24,New Build,52.468987,-2.086271,N/A
18 Kingston Grange Drive,CV33 8AS,Central,28-Nov-24,New Build,52.200359,-1.479309,N/A
"18 Larbourne Park Road, Northampton",NN7 4PT,Central,14-Apr-24,Relet,52.239165,-1.054085,Minor
"18 Love Lane, Lichfield",WS13 8GX,S&M,4-Mar-24,Relet,52.713843,-1.78019,Minor
"18 Luton Close, Yate",Bs37 7NJ,WOE,11-Jul-24,Relet,51.558543,-2.421323,N/A
18 Mayfly Close,CV37 9GU,Central,27-Mar-25,New Build,52.195588,-1.746628,N/A
18 Millham Road,GL52 5TH,Glouc,16-Oct-24,Relet,51.94983285,-2.054894916,Major
"18 Neston Close, Swindon",SN3 6GH,WOE,24-Jun-24,Relet,51.52819,-1.727553,N/A
"18 Old Mill Road, Cheltenham",GL51 0GQ,Glouc,28-Mar-24,New Build,51.916826,-2.125013,N/A
"18 Parkwall Road, Cadbury Heath",BS30 8HL,WOE,3-Jun-24,Relet,51.443065,-2.490534,Major
"18 Ploughmans Walk, Lichfield",WS13 7RR,S&M,1-Feb-24,Relet,52.697293,-1.822703,Minor
"18 Pullar Court, Bishops Cleeve",GL52 8RY,Glouc,19-Jan-25,Relet,51.947489,-2.065083,Minor
"18 Quaker Court, Thornbury",BS35 2NY,WOE,1-Aug-24,Relet,51.608651,-2.524289,Minor
18 Reed Close Twigworth,GL2 9SG,Glouc,25-Sep-24,New Build,51.897162,-2.218247,N/A
18 Rockall Way,TF3 5EP,S&M,12-Dec-24,Relet,52.679693,-2.467137,Minor
"18 Rodway Court, Windsor Place, Mangotsfield",BS16 9DE,WOE,10-Nov-24,Relet,51.486367,-2.488478,Major
"18 Rothwell Close, Telford",TF2 9GB,S&M,11-Jun-24,Relet,52.694307,-2.437508,Minor
18 Saville Close,TF1 2DG,S&M,19-Sep-24,Relet,52.700553,-2.524289,Major
"18 Summerfield Close, Moreton in Marsh",GL56 9EG,Glouc,17-Jun-24,Relet,52.016185,-1.757898,Major
18 Topham Drive,WS12 0AA,S&M,4-Feb-25,New Build,52.711526,-1.974347,NA
"18 Warwick Court, Wolverhampton",WV1 3QE,Central,25-Apr-24,Relet,52.582549,-2.118349,Minor
"18 Warwick Way, Rugby",CV22 5SF,Central,23-Jun-24,Relet,52.355408,-1.23591,Minor
18 Washington Road,GL3 1QJ,Glouc,21-Feb-25,New Build,51.892063,-2.203851,N/A
18 Watsons Lane,WR11 1GB,S&M,10-May-24,Relet,52.087885,-1.942253,Minor
"18 Westfield, Stonehouse",GL10 3XT,Glouc,28-Mar-25,New Build,51.756325,51.756325,N/A
18 Whelford Road,GL7 4EE,Glouc,21-Jun-24,Relet,51.673505,-1.773288,Minor
18 White Bryony Drive,TF1 6BD,S&M,28-Mar-24,New Build,52.717003,-2.519851,N/A
18 Woburn Lane,B31 5GS,Central,21-Apr-24,New Build,52.406222,-1.989776,N/A
18 Woodruff Close,CV23 0FN,Central,10-Dec-24,Relet,52.395682,-1.23536,Major
"18 Zinnia Close, Churchdown",GL3 1LF,Glouc,29-Jan-25,Relet,51.887785,-2.191757,Minor
"183 Celestine, Yate",BS37 5HD,WOE,17-Sep-24,Relet,51.548215,-2.425426,Major
183 Queens Road Priors Park,GL20 5EP,Glouc,15-Sep-24,Relet,51.984433,-2.152044,Major
185 Pauls Walk,WS13 7PY,S&M,3-May-24,Relet,52.696709,-1.835268,Minor
"189 Queens Rd, Tewkesbury",GL20 5EP,Glouc,18-Dec-24,Relet,51.984433,-2.152044,Minor
"18A Newman Close,  Westerleigh",BS37 8QT,WOE,13-Oct-24,Relet,51.516051,-2.435517,NA
"19 Abbot Richard Lane, Moreton in Marsh",GL56 0EZ,Glouc,16-May-24,New Build,51.986751,-1.68979,N/A
"19 Albert Morgan Close, Stonehouse",GL10 3WR,Glouc,16-May-24,New Build,51.759525,-2.2963,N/A
"19 Austin Road, Cirencester",GL7 1BT,Glouc,30-Sep-24,Relet,51.714166,-1.954388,Major
"19 Barclay Gardens, Telford",TF2 8AB,S&M,20-Mar-24,Relet,52.717735,-2.444553,Minor
"19 Barrington Close, Kingswood",BS15 4QD,WOE,15-Aug-23,Relet,51.468494,-2.496537,Major
"19 Bee Orchid Close, Whitchurch",BS14 0UJ,WOE,21-Jan-25,Relet,51.411046,-2.5914,N/A
"19 Boxbush Road, Cirencester",GL7 5XR,Glouc,25-Feb-25,Relet,51.674068,-1.924681,Minor
"19 Burcombe, Cirencester",GL7 7EH,Glouc,12-Apr-24,Relet,51.780547,-1.998692,Major
"19 Buxton Road, Yate",BS37 7NP,WOE,29-Jan-25,relet,51.558458,-2.419822,N/A
19 Cadfael Way,SY2 5GB,S&M,12-Sep-24,Relet,52.710138,-2.741219,Minor
19 Cardinal Drive,HP18 0XD,Central,25-Nov-24,Relet,51.890334,-1.14897,Minor
"19 Castle Gardens, Chipping Campden",GL55 6JR,Glouc,31-Jul-24,Relet,52.053376,-1.766269,Major
"19 Cedar Road, Mickleton",GL55 6SZ,Glouc,29-Mar-24,Relet,52.093514,-1.759418,Major
19 Colwell School Close,GL1 4EQ,Glouc,1-Oct-24,Relet,51.860899,-2.229779,Major
19 Cottage Lane,WS7 4XZ,S&M,24-May-24,Relet,52.672532,-1.93255,Minor
19 David Garrick Gardens,WS13 7JN,S&M,3-May-24,Relet,52.69593,-1.831261,Minor
"19 Downfield House, Shurdington",GL51 4SY,Glouc,7-Jun-24,Relet,51.865944,-2.120129,Minor
19 Elkington Close,TF10 7TZ,S&M,30-May-24,Relet,52.765273,-2.385252,N/A
19 Elkington Close,TF10 7TZ,S&M,1-Mar-25,Relet,52.765273,-2.385252,Minor
"19 Elmfield, Cheltenham",GL50 3BQ,Glouc,12-May-24,Relet,51.897721,-2.086134,Minor
"19 Farmstead Way, Moreton in Marsh",GL56 0EU,Glouc,27-Jun-24,New Build,51.985859,-1.689287,N/A
"19 Foremarke Road, Cheltenham",GL54 5GL,Glouc,14-Feb-25,New Build,51.95913,-1.971916,N/A
"19 Forester Close, Cheltenham",GL51 0FU,Glouc,24-Jan-25,New Build,51.913526,-2.107776,N/A
"19 Gibson Court, cirencester",GL7 1PN,Glouc,29-Nov-24,Relet,51.984779,-1.703299,Minor
"19 Grosvenor Place, Cirencester",GL7 1ZP,Glouc,10-Jan-25,Relet,51.713131,-1.964425,Minor
"19 Hampton close, Cadbury Heath",BS30 8EY,WOE,26-Sep-24,Relet,51.446902,-2.486302,N/A
"19 Hazel Place, SUA",CV37 7FL,Central,16-May-24,Relet,52.188392,-1.678561,Minor
"19 Hexton Close, Solihull Lodge",B90 1ET,Central,13-Sep-24,Relet,52.406457,-1.858722,Major
19 Huskinson Drive,HR1 1DB,S&M,22-Apr-24,Relet,52.063888,-2.712177,Minor
19 King Edmund Street,DY1 3HT,Central,6-Dec-24,Relet,52.514499,-2.095428,Minor
"19 King George's Field, Stow on the Wold",GL54 1AR,Glouc,19-Mar-24,Relet,51.930076,-1.713098,Major
"19 Laburnham Close, Cheltenham",GL51 0XE,Glouc,28-Aug-24,Relet,51.903323,-2.125723,Major
"19 Magnolia Court, Cheltenham",GL51 0XB,Glouc,17-Dec-24,Relet,51.90318,-2.124415,Major
19 Meadowsweet Avenue,ST16 1ZF,S&M,17-Mar-24,New build,52.838688,-2.126569,N/A
"19 Neston Close, Swindon",SN3 6GH,WOE,24-Jun-24,Relet,51.52819,-1.727553,N/A
"19 Percy Walker Court, Lincombe Road, Downend",BS16 5UR,WOE,16-Jun-24,Relet,51.486256,-2.514473,Minor
"19 Queens Road, Priors Park",GL20 5EL,Glouc,23-Jun-24,Relet,51.986582,-2.151716,Major
19 Reed Close Twigworth,GL2 9SG,Glouc,25-Sep-24,New Build,51.897162,-2.218247,N/A
"19 Rodway Court, Mangotsfield",BS16 9DE,WOE,17-Mar-24,Relet,51.486367,-2.488478,Minor
"19 Spring Gardens, Tewkesbury",GL20 5DN,Glouc,19-Mar-24,Relet,51.994763,-2.153135,Minor
"19 St Birinus Court, Lechlade",GL7 3BU,Glouc,1-Mar-24,Relet,51.699188,-1.69546,Minor
19 Tiddesley Avenue,B63 2FF,Central,28-Nov-24,New Build,52.462075,-2.096118,N/A
19 Topham Drive,WS12 0AA,S&M,3-Feb-25,New Build,52.711526,-1.974347,N/A
19 Townsend Place,WR2 6DX,S&M,25-Dec-24,Relet,52.203401,-2.252098,Minor
19 Violet Way,ST16 1ZN,S&M,26-Nov-24,New Build,52.838711,-2.130696,N/A
19 Wheatridge Road,HR2 7UL,S&M,27-Mar-24,Relet,52.03989,-2.742995,Minor
"19 woodlands, wotton",GL12 8UJ,WOE,5-May-24,Relet,51.596378,-2.48254,major
192 Exeter Street,ST17 4EB,S&M,27-May-24,Relet,52.793139,-2.110883,Minor
192 Hurleybrook Way,TF1 6UB,S&M,12-May-24,Relet,52.704089,-2.496494,Minor
"193 Thornbury Road, Walsall",WS2 8AE,Central,30-Sep-24,Relet,52.595536,-1.99076,Major
"195 Coniston Road, Patchway",BS34 5LW,WOE,25-Feb-24,Relet,51.537513,-2.582674,Major
197 Christophers Walk,WS13 7PX,S&M,1-Apr-24,Relet,52.696609,-1.834587,Minor
"197 High Street, Hanham",BS15 3RD,WOE,17-May-24,Relet,51.446104,-2.507646,Minor
"198 Coniston Road, Patchway",BS34 5JX,WOE,19-May-24,Relet,51.537459,-2.578953,major
"19a Ennerdale Road, Cheltenham",GL51 3NL,Glouc,22-Jul-24,Relet,51.888051,-2.112676,Minor
1a Leyfields,WS13 7NJ,S&M,18-Nov-24,Relet,52.697978,-1.82381,Minor
2  Milne Street. Bicester,OX25 2ED,Central,17-Jun-24,New Build,51.882182,-1.153134,NA
"2 Abbotts Way, Kemble",GL7 6AJ,Glouc,12-Jun-24,Relet,51.676059,-2.020633,Minor
"2 Abraham Fry House, Petherton Close, Kingswood",BS15 9QZ,WOE,14-Jul-24,Relet,51.457811,-2.503473,Minor
2 Admiral Road Southstoke ,BA2 2GB,WOE,12-Dec-24,Relet,51.35173138,-2.377637102,NA
"2 Albert Morgan Close, Stonehouse",GL10 3WR,Glouc,28-Mar-24,New Build,51.759525,-2.2963,N/A
"2 Bartholomew House, Tewkesbury",GL20 5NY,Glouc,2-Dec-24,Relet,51.997144,-2.15377,Major
2 Bee Orchid Close - Whitchurch,BS14 0UJ,WOE,14-Nov-24,Relet,51.411046,-2.5914,N/A
2 Beech Court,WS6 6QZ,S&M,7-May-24,Relet,52.667433,-2.015728,Major
"2 Beech Grove Court, Cirencester",GL7 1BD,Glouc,24-May-24,Relet,51.717305,-1.957193,Major
"2 Bethesda apartments, 60 East Street",BS3 1GG,WOE,29-Aug-24,Relet,51.442184,-2.596855,N/A
"2 Betula Close, Cheltenham",GL51 0GT,Glouc,28-Jun-24,New Build,51.917158,-2.125959,N/A
2 Blackthorn Court,WV11 2SE,S&M,30-May-24,Relet,52.631867,-2.053909,Major
"2 Bowling Green Road, Cirencester",GL7 2EZ,Glouc,12-May-24,Relet,51.724367,-1.969521,Major
"2 Buckigham Parade, Thornbury",BS35 1DQ,WOE,3-Mar-24,Relet,51.6111,-2.523508,Major
"2 Castle Court, thornbury",BS35 2BQ,WOE,8-Dec-24,Relet,51.608764,-2.527367,Minor
"2 Chalford Road, Gloucester",GL4 0JZ,Glouc,12-Nov-24,Relet,51.82811,-2.247025,Minor
"2 Charfield, Kingswood",BS15 4LY,WOE,17-Nov-24,Relet,51.46134,-2.487505,Minor
"2 Coleridge House, Coniston Road, Patchway",BS34 5QH,WOE,28-Nov-24,Relet,51.535656,-2.574475,Major
"2 Convent Close, Snow Hill",WV2 4QX,Central,8-Mar-24,Relet,52.581801,-2.126133,Minor
2 Council Houses,WS14 0BW,S&M,23-Jun-24,Relet,52.654433,-1.884143,Minor
2 Cross Tree Kempsford,GL7 4EU,Glouc,14-Jun-24,Relet,51.671379,-1.775627,Minor
"2 Dinmore Close, Cheltenham",GL54 5GP,Glouc,26-Mar-25,new Build,51.961457,-1.962737,N/A
"2 Downfield House, Shurdington",GL51 4SY,Glouc,4-Feb-25,Relet,51.865944,-2.120129,Minor
"2 Eastbury Close, thornbury",BS35 1DF,WOE,24-Mar-24,Relet,51.611712,-2.517277,Major
"2 Elderberry Mews, Churchdown",GL3 1LH,Glouc,20-Dec-24,Relet,51.886913,-2.191898,Minor
2 Eshton Way,B77 4LR,S&M,25-Oct-24,Relet,52.617436,-1.648633,Minor
"2 Glasscroft, Burntwood",WS7 9DT,S&M,31-Jan-24,Relet,52.680536,-1.889317,Major
"2 Godwin Close, Cheltenham",GL52 2QT,Glouc,4-Feb-25,Relet,51.902537,-2.062408,Minor
2 Green Acre Brockworth,GL3 4NG,Glouc,25-Aug-24,Relet,51.842828,-2.158562,Minor
"2 Haddrell Court, Vattingstone Lane, Alveston",BS35 3NL,WOE,25-Aug-24,Relet,51.591986,-2.537277,Minor
"2 Hampton Close, Cadbury Heath",BS30 8EY,WOE,24-Jul-24,Relet,51.446902,-2.486302,N/A
"2 Hawkesely Drive, Little Stoke",BS34 6LE,WOE,28-Apr-24,Relet,51.525183,-2.55566,Minor
"2 Hawthorne Crescent, Chasetown",WS7 4RZ,S&M,7-Dec-23,Relet,52.677076,-1.925059,Major
"2 Hethel Close, Quedgeley",GL2 2LB,Glouc,13-Dec-24,New build,51.81843,-2.272705,N/A
2 Hill Lane,WS7 1LS,S&M,15-Dec-24,Relet,52.68921,-1.935942,Minor
2 Hodnell Drive,CV47 1GQ,Central,25-Sep-24,Relet,52.249125,-1.382001,Major
"2 Honeysuckle Court, The Gardens, Erdington",B23 6AG,Central,16-Jun-24,Relet,52.521087,-1.850706,Minor
"2 Howland Close, Yate",BS37 7HX,WOE,16-May-24,Relet,51.563612,-2.414287,N/A
"2 Jade Close, Bishops Cleeve",GL52 7ZT,Glouc,11-Nov-24,Relet,51.954031,-2.072397,Minor
2 James Greenway Mews,WS13 7GY,S&M,17-Jul-24,Relet,52.695612,-1.834976,Minor
"2 Jubliee Crescent, Cradley Heath",B64 7DJ,Central,28-Mar-24,New build,52.468987,-2.086271,N/A
2 Kingston Grange Drive,CV33 8AS,Central,28-Nov-24,New Build,52.200359,-1.479309,N/A
"2 Kirkstone House, Windermere Road, Patchway",BS34 5QB,WOE,14-Apr-24,Relet,51.533878,-2.572331,Minor
2 Merchants Court,HR7 4DT,S&M,15-Jun-24,Relet,52.189141,-2.505962,Minor
"2 Millbrook Place, Stroud",GL5 1BA,Glouc,8-Mar-24,Relet,51.747826,-2.211489,Minor
"2 Neachells Court, Wolverhampton",WV13 3QU,Central,28-Mar-24,Relet,52.583296,-2.073248,Major
"2 Old Mill Road, Cheltenham",GL51 0GQ,Glouc,28-Mar-24,New Build,51.916826,-2.125013,N/A
"2 Pennsylvania Mews, Cheltenham",GL51 7AJ,Glouc,24-Jan-25,Relet,51.908772,-2.106565,Minor
"2 Pleasant House, Staple Hill",BS16 5HZ,WOE,3-Mar-24,Relet,51.483447,-2.509027,Major
"2 Pomeroy Court, Aylesbury",HP18 0XW,Central,2-Oct-24,Relet,51.837823,-0.851233,Minor
"2 Prunus Drive, Cheltenham",GL51 0GS,Glouc,20-Sep-24,New Build,51.916349,-2.125376,N/A
"2 Quaker Court, St John Street, Thornbury",BS35 2NY,WOE,10-Dec-23,Relet,51.608651,-2.524289,Major
"2 Quarry Mead, Alveston",BS35 3JN,WOE,19-Jan-25,Relet,51.592415,-2.535839,Major
"2 Robertson Road, Shurdington",GL51 4SF,Glouc,16-Oct-24,Relet,51.865695,-2.118052,Minor
2 Roseacre Gardens,CV34 8AJ,Central,28-Dec-24,Relet,52.276446,-1.554457,Minor
"2 Sage Close, Churchdown",GL3 1LJ,Glouc,30-Aug-24,Relet,51.886564,-2.192047,Major
"2 Seafield Drive, Brockworth",GL3 4ZS,Glouc,21-Mar-25,New Build,51.839269,-2.172549,N/A
"2 Selworthy, Cheltenham",GL51 3YA,Glouc,3-Jun-24,Relet,51.880475,-2.110013,Minor
"2 Sharon Ubank Close, Little Stoke",BS34 6DL,WOE,8-Dec-24,New Build,51.526209,-2.556986,Minor
"2 Sidwick Crescent, Ettingshall",WV2 2NZ,Central,22-Mar-24,Relet,52.569714,-2.096655,Major
"2 silcock close, Churchdown",GL3 1NA,Glouc,1-Dec-24,Relet,51.890321,-2.192615,Minor
2 Spencer Court,TF11 8DP,S&M,30-Oct-24,Relet,52.667935,-2.373319,Minor
2 Squirrel Court,WV16 4BS,S&M,3-Jun-24,Relet,52.534491,-2.423829,Minor
"2 St. Georges, Moreton in Marsh",GL56 0LX,Glouc,18-Apr-24,Relet,51.98796,-1.698997,Minor
"2 Still Close, Yate, Bristol",BS37 7JS,WOE,12-Dec-24,Relet,51.558221,-2.42083,N/A
"2 Stone Cross Place, Kempsford",GL7 4GX,Glouc,20-Jun-24,New Build,51.671814,-1.775989,N/A
"2 Summit Cose, Kingswood",BS15 9AB,WOE,28-Apr-24,Relet,51.460269,-2.504422,Minor
2 Sycamore Place,WS7 4QW,S&M,30-Jun-24,Relet,52.680289,-1.931103,Minor
"2 Syerston Place, Kingsway",GL2 2EL,Glouc,30-Oct-24,Relet,51.822271,-2.261357,Minor
2 Tansey Mews,ST16 1ZS,S&M,31-Mar-25,New Build,52.839395,-2.129926,N/A
"2 The Parade, Patchway",BS34 5LP,WOE,8-Sep-24,Relet,51.538429,-2.582786,Minor
"2 Tiddesley Avenue, Halesowen",B63 2FF,Central,22-Oct-24,New build,52.462075,-2.096118,N/A
"2 Tirley House, Epney Close",BS34 5NR,WOE,25-Aug-24,Relet,51.538776,-2.583512,Minor
"2 Tynings Court, Churchdown",GL3 2HF,Glouc,26-Mar-24,Relet,51.879983,-2.166329,Minor
"2 Upton Gardens, Bilston",WV14 0UQ,Central,16-Jun-24,Relet,52.562132,-2.089189,Minor
2 Upton Lane - Shrewsbury,SY2 5RR,S&M,31-Oct-24,Relet,52.712031,-2.722778,Minor
2 Vauban Court,ST17 4LD,S&M,4-Jul-24,Relet,52.794214,-2.105013,Minor
"2 Virginia Close, Northway",GL20 8PL,Glouc,26-Feb-24,Relet,52.004268,-2.110303,Major
"2 Vowles Road, Yate",BS37 7JF,WOE,5-Jan-25,Relet,51.563886,-2.415645,Major
"2 Welch House, Shurdington",GL51 4SA,Glouc,5-May-24,Relet,51.865528,-2.12034,Minor
2 Wood Ridings,WS13 7HR,S&M,16-Jul-24,Relet,52.69052,-1.832273,Major
2 Woods Lane,B64 7AN,Central,30-Apr-24,new Build,52.468735,-2.087006,N/A
"20 Albert Morgan Close, Stonehouse",GL10 3WR,Glouc,16-May-24,New Build,51.759525,-2.2963,N/A
20 Balkwill Crescent,B93 0FH,Central,9-Dec-24,Relet,52.378505,-1.742044,Minor
20 Barclay Gardens,TF2 8AB,S&M,18-Apr-24,Relet,52.717735,-2.444553,Minor
20 Beacon Court,WV4 6GA,Central,23-Nov-23,Relet,52.556932,-2.123531,Minor
20 Beech Grove Court,GL7 1BD,Glouc,19-Jul-24,Relet,51.717305,-1.957193,Major
"20 Betony Road, Rugby",CV23 0FB,Central,29-May-24,Relet,52.395613,-1.233039,Minor
20 Charnborough Court,TF2 6NB,S&M,18-Jul-24,Relet,52.696713,-2.454904,Minor
"20 Church View, Chipping Sodbury",BS37 6FU,WOE,29-Apr-24,Relet,51.542821,-2.391588,N/A
"20 Clements Way, Tytherington",GL12 8FT,WOE,22-Aug-24,Relet,51.593257,-2.482709,Minor
"20 Crown Apartments, Bedminster",BS3 4EE,WOE,22-May-24,Relet,51.441444,-2.597234,minor
"20 Dunstall House, Moreton in the Marsh",GL56 0DR,Glouc,15-Jun-24,Relet,51.986982,-1.703299,Minor
20 Eastbury Close,BS35 1DF,WOE,16-Jun-24,Relet,51.611712,-2.517277,Minor
20 Elder Close,B31 4LD,Central,4-Oct-23,Relet,52.398232,-1.976353,Major
20 Fallowfield,WS13 7RS,S&M,3-Jan-25,Relet,52.697978,-1.82381,Major
"20 Forester Close, Cheltenham",GL51 0FU,Glouc,24-Jan-25,New Build,51.913526,-2.107776,N/A
20 Furnace Drive,NN11 9FU,Central,18-Sep-24,Relet,52.267466,-1.173412,Major
"20 Gassons Way, Lechlade",GL7 3BG,Glouc,19-Dec-24,Relet,51.698133,-1.694396,Minor
20 Green Templeton Gardens,WR11 2TB,S&M,11-Dec-24,New Build,52.838688,-2.126569,NA
20 Green Templeton Gardens,WR11 2TB,S&M,14-Mar-25,Relet,52.077129,-1.955793,N/A
20 Grove Meadow,DY14 8AG,S&M,30-Oct-24,Relet,52.382645,-2.47551,Minor
"20 Hampton close, Cadbury Heath",BS30 8EY,WOE,26-Sep-24,relet,51.446902,-2.486302,N/A
"20 Hawkesley Drive, Little Stoke",BS34 6LE,WOE,20-Oct-24,Relet,51.525183,-2.55566,Major
20 Hyde Gardens,B63 2FG,Central,12-Dec-24,New Build,52.462938,-2.096282,N/A
20 Jubilee Crescent,B64 7DJ,Central,18-Apr-24,New Build,52.468987,-2.086271,N/A
"20 Luton Close, Yate",BS37 7NJ,WOE,11-Jul-24,Relet,51.558543,-2.421323,N/A
"20 Marshfield Road, Tormarton, Badminton",GL9 1JQ,WOE,28-Jan-24,Relet,51.505554,-2.332385,Major
20 Mayfly Close,CV37 9GU,Central,27-Mar-25,New Build,52.195588,-1.746628,N/A
20 Mozart Court,WS11 7WR,S&M,30-May-24,Relet,52.694153,-2.000046,Minor
"20 Neston Close, Swindon",SN3 6GH,WOE,24-Jun-24,Relet,51.52819,-1.727553,N/A
20 Northside Close,B98 7QH,S&M,1-Aug-24,Relet,52.28489,-1.942505,Major
"20 Old Mill Road, Cheltenham",GL51 0GQ,Glouc,28-Mar-24,New Build,51.916826,-2.125013,N/A
"20 Orchard Vale, Kingswood",BS15 9UN,WOE,7-Jul-24,Relet,51.459569,-2.48953,Major
"20 Pepper Street, Wem",SY4 5RH,S&M,15-Feb-24,Relet,52.89117,-2.707652,Minor
20 Persh Way,GL2 8HQ,Glouc,19-Jul-24,Relet,51.889453,-2.276262,Major
20 Reed Close Twigworth,GL2 9SG,Glouc,25-Sep-24,New Build,51.897162,-2.218247,N/A
"20 Ringers Close, Apperley",GL19 4DF,Glouc,18-Aug-24,Relet,51.953818,-2.201079,Minor
"20 Riversmeet, Brockworth",GL3 4JX,Glouc,7-Jul-24,Relet,51.84565,-2.150887,N/A
"20 Riversmeet, Brockworth",GL3 4JX,Glouc,19-Jan-25,Relet,51.84565,-2.150887,Minor
"20 Romney Road, Tetbury",GL8 8JU,Glouc,3-Apr-24,Relet,51.644328,-2.167724,Minor
20 Rothwell Close,TF2 9GB,S&M,7-Sep-24,Relet,52.694307,-2.437508,Minor
"20 Silcock Close, Churchdown",GL3 1NA,Glouc,12-Jul-24,Relet,51.890321,-2.192615,Major
20 Spencer Court,TF11 8DP,S&M,22-Apr-24,Relet,52.667935,-2.373319,Minor
"20 St Albans Court, Willenhall",WV13 3TD,Central,28-Apr-24,Relet,52.582561,-2.06938,Minor
20 Stockings Lane,WS15 4LQ,S&M,8-Jul-24,Relet,52.728713,-1.890824,Minor
"20 Streamleaze Court  Rock Street , Thornbury",BS35 2BL,WOE,27-Oct-24,Relet,51.605817,-2.524718,N/A
"20 the Leaze, Cirencester",GL7 5UL,Glouc,5-Apr-24,Relet,51.667788,-1.931892,Minor
20 Topham Drive,Ws12 0AA,S&M,3-Feb-25,New Build,52.711526,-1.974347,N/A
"20 Tynings Court, Churchdown",GL3 2HF,Glouc,7-May-24,Relet,51.879983,-2.166329,Minor
20 Valentine Avenue Innsworth,Gl3 1FL,Glouc,21-Aug-24,New Build,51.891624,-2.208034,N/A
20 Victoria Drive,B78 3QH,S&M,19-May-24,Relet,52.614636,-1.703051,Major
20 Violet Way,ST16 1ZN,S&M,31-Mar-25,New Build,52.838711,-2.130696,N/A
20 Watsons Lane,WR11 1GB,S&M,19-Jan-25,Relet,52.087885,-1.942253,Minor
20 White Bryony Drive,TF1 6BD,S&M,28-Mar-24,New Build,52.717003,-2.519851,N/A
"20 Whitefields, Chipping Sodbury",BS37 6LF,WOE,14-Apr-24,relet,51.537848,-2.386314,Minor
"203 Exeter Street,Stafford",ST17 4ED,S&M,15-Apr-24,Relet,52.792985,-2.111847,Minor
204 Park Street South,WV2 3JF,Central,22-Aug-24,Relet,52.569606,-2.130716,Major
206 Exeter Street,ST17 4EB,S&M,22-Jul-24,Relet,52.793139,-2.110883,N/A
206 Exeter street,ST17 4EB,S&M,29-Dec-24,Relet,52.793139,-2.110883,Minor
"21 Albert Morgan Close, Stonehouse",GL10 3WR,Glouc,16-May-24,New Build,51.759525,-2.2963,N/A
21 Amorosa Gardens,HP18 0UJ,Central,20-Jan-25,Relet,51.839274,-0.848996,Minor
21 Andrew Evans House,WV16 4HQ,S&M,9-Aug-24,Relet,52.539527,-2.423317,Minor
"21 Bee Orchid Close, Whitchurch",BS14 0UJ,WOE,21-Jan-25,relet,51.411046,-2.5914,N/A
"21 Blakeney Road, Patchway",BS34 5LY,WOE,3-Mar-24,relet,51.538129,-2.585378,Major
"21 Bromford Close, Handsworth Wood",B20 2RS,Central,19-Feb-24,Relet,52.512562,-1.923054,Major
"21 Chamberlayne Close, Stow on the Wold",GL54 1DY,Glouc,8-Jul-24,Relet,51.926032,-1.720966,Minor
"21 Chapel Lane, Badminton",GL9 1HQ,WOE,7-Apr-24,Relet,51.527266,-2.274337,Minor
21 Crouch Court Priors Park,GL20 5TH,Glouc,1-Sep-24,Relet,51.986206,-2.157569,Minor
"21 Crown Gardens, Warmley",BS30 8YG,WOE,8-Dec-24,Relet,51.459112,-2.478227,Major
21 Croxall Road,B79 9JH,S&M,21-Jan-25,Relet,52.707699,-1.685991,Minor
"21 Dunstall House, Moreton in Marsh",GL56 0DR,Glouc,22-Mar-24,Relet,51.986982,-1.703299,Minor
"21 Eastbury Close, thornbury",BS35 1DF,WOE,5-May-24,Relet,51.611712,-2.517277,Major
"21 Elderberry Mews, Churchdown",GL3 1LH,Glouc,28-Jan-25,Relet,51.886913,-2.191898,Minor
"21 Foremarke Road, Cheltenham",GL54 5GL,Glouc,21-Mar-25,New Build,51.95913,-1.971916,N/A
"21 Forester Close, Cheltenham",GL51 0FU,Glouc,24-Jan-25,New Build,51.913526,-2.107776,N/A
"21 Gassons Way, Lechlade",GL7 3BG,Glouc,26-Mar-24,Relet,51.698133,-1.694396,Minor
21 Hamilton Road,CV37 8UY,Central,26-Dec-24,Relet,52.121429,-1.740284,Minor
"21 Hampton Close, Cadbury Heath",BS30 8EY,WOE,12-Sep-24,Relet,51.446902,-2.486302,N/A
21 HIll Street,WS7 3XU,S&M,27-Sep-24,Relet,52.673945,-1.93626,Major
21 Hollywood Works Close,B90 1EP,Central,29-Jan-25,Relet,52.402581,-1.853157,Minor
21 Lady Margaret Hall Way,WR11 2TA,S&M,26-Apr-24,New Build,52.07659,-1.955779,N/A
"21 Lanes Court, Tewkesbury",GL20 5JH,Glouc,15-Jun-24,Relet,51.990491,-2.153914,Minor
"21 Lias Close, Southam",CV47 0NG,Central,26-Feb-24,Relet,52.261467,-1.390727,Minor
21 Main Street,B79 0AS,S&M,10-Jul-24,Relet,52.696061,-1.628479,Minor
21 Meadowsweet Avenue,ST16 1ZF,S&M,7-Nov-24,Relet,52.838688,-2.126569,Minor
"21 Miller Place, Cheltenham",GL50 4FJ,Glouc,9-May-24,Relet,51.904457,-2.081648,Minor
21 Neachells Court,WV11 3PS,Central,27-Apr-24,Relet,52.597424,-2.079458,Minor
"21 Neston Close, Swindon",SN3 6GH,WOE,24-Jun-24,Relet,51.52819,-1.727553,N/A
21 New Street,CV31 1HL,Central,12-Mar-24,Relet,52.286236,-1.526329,Major
"21 Oakridge Close, Kingswood",Bs15 9RF,WOE,7-Jul-24,Relet,51.458294,-2.489258,Major
21 Overbury Way,CV35 9UL,Central,28-Nov-24,Relet,51.460269,-2.504422,Minor
"21 Pendennis House, Staple Hill",BS16 5HY,WOE,8-May-24,Relet,51.482928,-2.508891,Minor
21 Reed Close Twigworth,GL2 9SG,Glouc,25-Sep-24,New Build,51.897162,-2.218247,N/A
21 Richardson Court,WS7 1ND,S&M,11-Aug-24,Relet,52.684789,-1.941289,Minor
21 Shepherd Close,WS13 7RT,S&M,2-Aug-24,Relet,52.696861,-1.821979,Major
21 St Birinus Court Gasson Way,GL7 3BU,Glouc,17-Aug-24,Relet,51.699188,-1.69546,Minor
21 Tiddesley Avenue,B63 2FF,Central,28-Nov-24,New Build,52.462075,-2.096118,N/A
21 Topham Drive,WS12 0AA,S&M,3-Feb-25,New Build,52.711526,-1.974347,N/A
21 Violet Way,ST16 1ZN,S&M,26-Nov-24,New Build,52.838711,-2.130696,N/A
214 Chase Road,WS7 0DY,S&M,21-Jul-24,Relet,52.674117,-1.922225,Major
"215 Rodway Road, Patchway",BS34 5EG,WOE,24-Mar-24,Relet,51.530714,-2.58319,Minor
"21a Partridge Croft, Lichfield",WS13 6SJ,S&M,14-Feb-24,Relet,52.686233,-1.820676,Minor
"22 Albert Morgan Close, Stonehouse",GL10 3WR,Glouc,16-May-24,New Build,51.759525,-2.2963,N/A
"22 Aldsworth, Cirencester",GL7 5PA,Glouc,11-Mar-24,Relet,51.762976,-1.826062,Major
"22 Auden Court, Perton",WV6 7QG,S&M,4-Mar-24,Relet,52.596357,-2.199421,Minor
"22 Barkers Leys, Bishops Cleeve",GL52 8BQ,Glouc,24-Mar-24,Relet,51.949294,-2.052478,Major
"22 Barksdale, Winchcombe",GL54 5QW,Glouc,3-Mar-24,Relet,51.951551,-1.974025,Minor
"22 Becch Grove Court, cirencester",GL7 1BD,Glouc,14-Apr-24,Relet,51.717305,-1.957193,Minor
"22 Beceshore Close, Moreton in Marsh",GL56 9NB,Glouc,23-Sep-24,Relet,51.994141,-1.697091,Minor
"22 Bee Orchid Close, Whitchurch",BS14 0UJ,WOE,21-Nov-24,Relet,51.411046,-2.5914,N/a
"22 Birdwood, Hanham",BS15 3BU,WOE,15-Sep-24,Relet,51.450739,-2.508734,Major
22 Blacksmith Piece,DY13 0SJ,S&M,14-Jun-24,Relet,52.322161,-2.292329,Minor
"22 Blenheim, Old Stratford",MK19 6FN,Central,20-Oct-24,Relet,52.063979,-0.870499,Minor
"22 Boxbush Road, South Cerney",GL7 5XR,Glouc,16-Jul-24,Relet,51.674068,-1.924681,Minor
22 Broadheath Close,B97 6SW,S&M,12-May-24,Relet,52.312128,-1.957799,Major
22 Cedar Road,WS7 4RT,S&M,11-Aug-24,Relet,52.679134,-1.924139,Minor
22 Chamberlain Close,DE13 7HS,S&M,11-Apr-24,Relet,52.747966,-1.809876,Minor
"22 Charfield Green, Charfield, Wotton under Edge",GL12 8SZ,WOE,8-Sep-24,Relet,51.62585,-2.398792,Major
22 Crouch Court,GL20 5TH,Glouc,18-Aug-24,Relet,51.986206,-2.157569,Minor
"22 Eastbury Close, Thornbury",BS35 1DF,WOE,19-May-24,Relet,51.611712,-2.517277,Major
"22 Elm Road, Blythe Valley Park",B90 8AX,Central,30-Oct-24,Relet,52.374312,-1.800692,Minor
"22 Elmfield, Cheltenham",GL50 3BQ,Glouc,3-Mar-24,Relet,51.897721,-2.086134,Minor
22 Eyton View,TF1 3JW,S&M,23-Aug-24,Relet,52.713072,-2.52102,Major
"22 Feathers Drive, Lydney",GL15 5GH,Glouc,18-Apr-24,Relet,51.718662,-2.518468,Minor
"22 Forester Close, Cheltenham",GL51 0FU,Glouc,31-Jan-25,New Build,51.913526,-2.107776,N/A
"22 Great Dowles, Cadbury Heath",BS30 8AN,WOE,3-Mar-24,Relet,51.442574,-2.487694,Major
"22 Great Leaze, Cadbury Heath",BS30 8AT,WOE,11-Aug-24,Relet,51.442947,-2.484461,Minor
"22 Hampton Close, Cadbury Heath",BS30 8EY,WOE,12-Sep-24,Relet,51.446902,-2.486302,N/A
"22 Harrison Down, Southstoke, Bath",BA2 2FT,WOE,10-Jun-24,Relet,51.351687,-2.379603,N/A
22 Hyde Gardens,B63 2FG,Central,12-Dec-24,New Build,52.462938,-2.096282,N/A
22 Jubilee Crescent,B64 7DJ,Central,19-Apr-24,New Build,52.468987,-2.086271,N/A
"22 Lorimer Gardens, Churchdown",GL3 1GD,Glouc,10-May-24,Relet,51.883506,-2.19678,Major
"22 Luton Close, Yate",Bs37 7NJ,WOE,11-Jul-24,Relet,51.558543,-2.421323,N/A
22 Marigold Walk,CV10 7SW,Central,10-Feb-25,Relet,52.50443,-1.483412,Minor
"22 Neachells Court, Wolverhampton",WV13 3QU,Central,5-Apr-24,Relet,52.583296,-2.073248,Minor
"22 Neston Close, Swindon",SN3 6GH,WOE,24-Jun-24,Relet,51.52819,-1.727553,N/A
"22 Parklands, Churchdown",GL3 1JS,Glouc,27-Jan-25,Relet,51.886377,-2.189964,Minor
"22 Poplar Gardens House, Alma Close, Kingswood",BS15 4EN,WOE,3-Mar-24,Relet,51.463582,-2.501234,Minor
22 Roseacre gardens,CV34 8AJ,Central,11-Jan-24,Relet,52.276446,-1.554457,Minor
22 Spencer Court,TF11 8DP,S&M,9-Nov-24,Relet,52.667935,-2.373319,Minor
22 Steward Road Northway TBC,GL20 8QS,Glouc,29-Feb-24,Relet,52.003097,-2.113344,Minor
"22 The Parade, Coniston Road, Patchway",BS34 5LP,WOE,25-Feb-24,Relet,51.538429,-2.582786,Major
22 Topham Drive,WS12 0AA,S&M,7-Feb-25,New Build,52.711526,-1.974347,N/A
"22 Treeleaze Lawns Road, yate",BA37 5AZ,WOE,9-Feb-25,Relet,51.54248116,-2.412063731,Major
"22 Vale Street, West Bromwich",B71 4DN,Central,30-Jun-24,Relet,52.531483,-1.985539,Minor
22 Valentine Avenue Innsworth,Gl3 1FL,Glouc,21-Aug-24,New Build,51.891624,-2.208034,N/A
22 Violet Way,ST16 1ZN,S&M,31-Mar-25,New Build,52.838711,-2.130696,N/A
22 Westgate Close,CV34 6HB,Central,20-Nov-24,Relet,51.888389,-2.191938,Major
"22 Yarrow Walk, Emersons Green",BS16 7PE,WOE,17-Nov-24,Relet,51.842816,-2.183988,Minor
"22 Yew Tree Way, churchdown",GL3 2SU,Glouc,27-Oct-24,Relet,51.882272,-2.188367,Major
22a Bayford Avenue,B31 4NW,Central,20-Feb-25,Relet,52.388631,-1.982896,Minor
"22a Newton Road, Cadbury Heath",BS30 8EZ,WOE,18-Apr-24,Relet,51.447345,-2.485818,N/A
22a Windmill Lane,WS13 7HY,S&M,17-Dec-24,Relet,52.693548,-1.838076,Major
"22b Newton Road, Cadbury Heath",BS30 8EZ,WOE,18-Apr-24,Relet,51.447345,-2.485818,N/A
"22C Newton Road, Cadbury Heath",BS30 8EZ,WOE,18-Apr-24,Relet,51.447345,-2.485818,N/A
"22d Newton Road, Cadbury Heath",BS30 8EZ,WOE,18-Apr-24,Relet,51.447345,-2.485818,N/A
"22E Newton Road, Cadbury Heath",BS30 8EZ,WOE,18-Apr-24,Relet,51.447345,-2.485818,N/A
"22f Newton Road, Cadbury Heath",BS30 8EZ,WOE,18-Apr-24,Relet,51.447345,-2.485818,N/A
"22G Newton Road, Cadbury Heath, Bristol",BS30 8EZ,WOE,18-Apr-24,Relet,51.447345,-2.485818,N/A
"23 Albert Morgan Close, Stonehouse",GL10 3WR,Glouc,16-May-24,New Build,51.759525,-2.2963,N/A
23 bakewell gardens,WV10 0DF,Central,8-Mar-24,Relet,52.593473,-2.114106,Minor
"23 Bartsia Road, Bicester",OX26 3ZG,Central,6-May-24,Relet,51.911768,-1.156246,Minor
"23 Bromford Hill, Handsworth Wood",B20 2TD,Central,24-Sep-24,Relet,52.516859,-1.909666,Minor
"23 Byron Close, Chase terrace",WS7 2EX,S&M,25-Apr-24,Relet,52.690886,-1.928291,Minor
"23 Coriander Drive, Churchdown",Gl3 1LD,Glouc,11-Oct-24,Relet,51.887645,-2.190903,Major
"23 Countess Lilias, Cirencester",GL7 1UD,Glouc,9-Jun-24,Relet,51.705243,-1.972095,Minor
23 David Garrick Gardens,WS13 7JN,S&M,28-Jul-24,Relet,52.69593,-1.831261,Minor
23 Eyton View,TF1 3JW,S&M,30-Jul-24,Relet,52.713072,-2.52102,Minor
"23 Foremarke Road, Cheltenham",GL54 5GL,Glouc,21-Mar-25,New Build,51.95913,-1.971916,N/A
"23 Forester Close, Cheltenham",GL51 0FU,Glouc,31-Jan-25,New Build,51.913526,-2.107776,N/A
23 Friary Avenue,WS13 6QQ,S&M,18-Dec-24,Relet,52.677969,-1.831463,Major
"23 Hampton Close, Cadbury Heath",BS30 8EY,WOE,12-Sep-24,Relet,51.446902,-2.486302,N/A
"23 Hilltop, Soundwell",BS16 4RN,WOE,22-Sep-24,Relet,51.472143,-2.50736,Minor
23 Kenilworth Road,WS14 9DP,S&M,26-Nov-24,Relet,51.913526,-2.107776,Minor
23 Lady Margaret Hall Way,WR11 2TA,S&M,26-Apr-24,New Build,52.07659,-1.955779,N/A
"23 Lambert Close, Shurdington",GL51 4SR,Glouc,9-Jun-24,Relet,51.864362,-2.12043,Minor
23 Lavender Close,WV9 5SB,Central,30-Jan-25,Relet,52.625656,-2.149104,Minor
"23 Laxton Grove, Solihull",B91 2 JT,Central,8-Jul-24,Relet,52.42838054,-1.773864193,Minor
23 Main Street,B79 0AS,S&M,7-May-24,Relet,52.696061,-1.628479,Major
23 Meadowsweet Avenue,ST16 1ZF,S&M,20-Mar-24,New build,52.838688,-2.126569,N/A
"23 Moat House Lane, Marston Green",B37 7FW,Central,1-Nov-24,Relet,52.460748,-1.741661,Minor
23 Mons Avenue,CV7 7PF,Central,11-Feb-24,Relet,52.437022,-1.641258,Major
"23 Nightingale Close, Frampton Cotterell",BS36 2HB,WOE,5-Jan-25,Relet,51.525677,-2.484704,Major
"23 Orchid Close, Ross on wye",HR9 7RL,S&M,20-Nov-24,Relet,52.280121,-1.592864,Minor
"23 Peache Court, Downend",BS16 5TP,WOE,28-Jul-24,Relet,51.488784,-2.49981,Minor
"23 Pleasant House, Pleasant Road, Staple Hill",BS16 5HZ,WOE,26-Nov-24,Relet,52.677045,-1.826305,Major
23 Ringers Close Apperley,GL19 4DF,Glouc,3-Mar-24,Relet,51.953818,-2.201079,Major
"23 The Leasows, Broadwell",GL56 0TJ,Glouc,29-Mar-24,Relet,51.947626,-1.705508,Major
"23 The Quarry, Cirencester",GL7 4JX,Glouc,12-May-24,Relet,51.709998,-1.769997,Minor
"23 The Sunground, Avening",GL8 8NW,Glouc,23-Oct-24,Relet,51.68283,-2.168758,Minor
23 Thistle Close,WR5 3DP,S&M,3-Feb-25,Relet,52.166319,-2.208247,Minor
23 Thomas Greenway,WS13 7QA,S&M,16-Jan-25,Relet,52.69486,-1.837627,Minor
23 Topham Drive,WS12 0AA,S&M,7-Feb-25,New Build,52.711526,-1.974347,N/A
"23 Tweed Close, Thornbury",BS35 2HA,WOE,31-Mar-24,Relet,51.603915,-2.519614,Minor
23 Violet Way,ST16 1ZN,S&M,26-Nov-24,New Build,52.838711,-2.130696,N/A
"23 Weaver Crescent, Twigworth",GL2 9SH,Glouc,15-Oct-24,New Build,51.896225,-2.219405,N/A
23 William Shakespearce,WR9 7HZ,S&M,29-Mar-24,Relet,52.252734,-2.154397,Minor
"23a Hilltop Road, Soundwell",BS16 4RN,WOE,30-Jun-24,Relet,51.472143,-2.50736,major
24 Andrew Evans House,WV16 4HQ,S&M,6-Aug-24,Relet,52.539527,-2.423317,Minor
"24 Bee Orchid Close, Whitchurch",BS14 0UJ,WOE,21-Nov-24,Relet,51.925465,-1.720922,N/a
24 Blakeney Road. Patchway,BS34 5LX,WOE,18-Feb-24,Relet,51.539117,-2.585633,Major
"24 Bledisloe Way, Lydney",GL15 5GF,Glouc,27-Jan-25,Relet,51.71916,-2.51969,Minor
24 Boxbush Road,GL7 5XR,Glouc,11-Dec-24,Relet,51.674068,-1.924681,Major
"24 Burcombe, cirencester",GL7 7EH,Glouc,20-May-24,Relet,51.780547,-1.998692,Major
24 Campion Grove,ST16 1FG,S&M,7-Apr-24,Relet,52.807675,-2.134193,Minor
"24 Castle Gardens, Chipping Campden",GL55 6JR,Glouc,30-Apr-24,Relet,52.053376,-1.766269,Minor
24 Cedar Road,WS7 4RT,S&M,7-Nov-24,Relet,52.679134,-1.924139,Minor
24 Coleridge Drive,WV6 7QE,S&M,18-Oct-24,Relet,52.596396,-2.201011,Minor
24 Dove Hollow,WS12 1NY,S&M,23-Jul-24,Relet,52.704805,-1.985631,Major
"24 Drake Gardens, Brockworth",GL3 2ZR,Glouc,31-Jul-24,New Build,51.8474393,-2.143972633,N/A
"24 Edensor Close, Wolverhampton",WV10 0TB,Central,14-Apr-24,Relet,52.593916,-2.114896,Major
"24 Elberton, Tenniscourt Road, Kingswood",BS15 4JL,WOE,25-Nov-24,Relet,52.680676,-1.832865,Minor
24 Fairfax Way,WR2 5TZ,S&M,25-Jul-24,Relet,52.181727,-2.255194,Minor
"24 Forester Close, Cheltenham",GL51 0FU,Glouc,31-Jan-25,New Build,51.913526,-2.107776,N/A
"24 Hampton Close, Cadbury Heath",BS30 8EY,WOE,12-Sep-24,Relet,51.446902,-2.486302,N/A
"24 Harrison Down, Southstoke, Bath",BA2 2FT,WOE,10-Jun-24,Relet,51.351687,-2.379603,N/A
"24 Harveys Lane, Winchcombe",GL54 5QT,Glouc,8-Dec-24,Relet,51.952702,-1.974562,Minor
24 Haywood Drive,WR13 5AR,S&M,30-Apr-24,Relet,52.151777,-2.328671,Minor
24 Hyde Gardens,B63 2FG,Central,30-Jan-25,New Build,52.462938,-2.096282,N/A
"24 Isambard Place, Wellington Street, Swindon",SN1 1DX,WOE,29-Sep-24,Relet,51.564605,-1.783943,Major
24 Jubilee Crescent,B64 7DJ,Central,19-Apr-24,New Build,52.468987,-2.086271,N/A
"24 Lambert Close, Shurdington",GL51 4SR,Glouc,9-Jun-24,Relet,51.864362,-2.12043,Major
"24 Lorimer Gardens, Churchdown",GL3 1GD,Glouc,29-May-24,Relet,51.883506,-2.19678,Major
"24 Maes Knoll Drive, Whitchurch",BS14 0FF,WOE,25-Aug-24,Relet,51.403289,-2.55007,Minor
"24 Persh Way, Maisemore",GL2 8HQ,Glouc,18-Apr-24,Relet,51.889453,-2.276262,Minor
"24 Riversmeet, Brockworth",GL3 4JX,Glouc,17-Nov-24,Relet,52.63739,-1.838505,Major
24 Shallowford Mews,ST16 1HR,S&M,6-Jul-24,Relet,52.817512,-2.126599,Minor
24 Topham Drive,WS12 0AA,S&M,12-Feb-25,New Build,52.711526,-1.974347,N/A
24 Valentine Avenue Innsworth,Gl3 1FL,Glouc,21-Aug-24,New Build,51.891624,-2.208034,N/A
24 Violet Way,ST16 1ZN,S&M,25-Mar-25,New Build,52.838711,-2.130696,N/A
24 Warren Court,TF9 3DF,S&M,28-Feb-24,Relet,52.902871,-2.486677,Minor
24 Warrener Close,GL3 1GE,Glouc,31-Oct-24,New Build,51.884507,-2.194881,N/A
"24 Whitefields, Chipping Sodbury",BS37 6LF,WOE,14-Jul-24,Relet,51.537848,-2.386314,Major
24 Wych Elm Grove,WR11 3FT,S&M,31-Oct-24,Relet,52.093351,-1.925343,Minor
240 Beacon Park Village,WS13 6JZ,S&M,18-Mar-24,Relet,52.682486,-1.83436,Minor
24a Longfellow Road,WS7 2EY,S&M,17-Feb-25,Relet,52.690328,-1.926768,Minor
"24a Newton Road, Cadbury Heath",BS30 8EZ,WOE,5-Sep-24,Relet,51.447345,-2.485818,N/A
"24B Newton Road, Cadbury Heath",BS30 8EZ,WOE,19-Sep-24,Relet,51.447345,-2.485818,N/A
"24b Woodchester, Kingswood",BS15 4XY,WOE,9-Mar-25,Relet,51.475138,-2.501317,Minor
"24C Newton Road, Cadbury Heath",BS30 8EZ,WOE,19-Sep-24,Relet,51.447345,-2.485818,N/A
"24D Newton Road, Cadbury Heath",BS30 8EZ,WOE,19-Sep-24,Relet,51.447345,-2.485818,N/A
"24E newton Road, Cadbury Heath",BS30 8EZ,WOE,19-Sep-24,Relet,51.447345,-2.485818,N/A
"25 Anchor Lane, Solihull",B91 2JN,Central,10-Jul-24,Relet,52.425105,-1.773457,Major
25 Back Lane,WS14 9HN,S&M,9-Apr-24,Relet,52.673918,-1.809916,Major
25 Barnswood Close,B63 2DE,Central,6-Feb-25,Relet,52.454737,-2.087347,Minor
"25 Chapel Street, Wolverhampton",WV2 3BA,Central,19-Oct-24,Relet,52.571079,-2.126536,Minor
25 Church Close,WS14 0LS,S&M,31-Jul-24,Relet,52.63739,-1.838505,Minor
25 Cottage Lane,WS7 4XZ,S&M,11-Nov-24,Relet,52.672532,-1.93255,Major
"25 Drake Gardens, Brockworth",GL3 4ZR,Glouc,31-Jul-24,New Build,51.855289,-2.163915,N/A
"25 Elmfield, Cheltenham",GL50 3BQ,Glouc,3-Feb-25,Relet,51.897721,-2.086134,Minor
"25 Foremarke Road, Cheltenham",GL54 5GL,Glouc,21-Mar-25,New Build,51.95913,-1.971916,N/A
"25 Forester Close, Cheltenham",GL51 0FU,Glouc,31-Jan-25,New Build,51.913526,-2.107776,N/A
"25 Gassons Way, Lechlade",GL7 3BG,Glouc,4-Jul-24,Relet,51.698133,-1.694396,Major
25 Gathorne Crescent Yate,BS37 5EN,WOE,9-May-24,Relet,51.543146,-2.422336,Major
"25 george Holmes Way, Stoke Gifford",BS16 1QA,WOE,30-Apr-24,New Build,51.497352,-2.542228,Minor
"25 Hampton Close, Cadbury Heath",BS30 8EY,WOE,12-Sep-24,Relet,51.446902,-2.486302,N/A
"25 Ironbridge Road, Twigworth",GL2 9GT,Glouc,14-Feb-25,Relet,51.895546,-2.221742,Minor
"25 Kennedy House  Estoril, Yate",BS37 4NR,WOE,15-Dec-24,Relet,51.538345,-2.411779,N/A
25 Lady Margaret Hall Way,WR11 2TA,S&M,26-Apr-24,New build,52.07659,-1.955779,N/A
"25 Levett Grange, Rugeley",WS15 2FB,S&M,12-Aug-24,Relet,52.772971,-1.947218,Minor
25 Lowfield Meadow,HR2 9HZ,S&M,10-Apr-24,Relet,52.024023,-2.839024,Major
25 Meadowsweet Avenue,ST16 1ZF,S&M,20-Mar-24,New Build,52.838688,-2.126569,N/A
"25 Neachells Court, Wolverhampton",WV13 3QU,Central,2-Aug-24,Relet,52.583296,-2.073248,Minor
25 old Mill Road Cheltenham,GL51 0GQ,Glouc,16-Aug-24,New Build,51.916826,-2.125013,N/A
"25 Oldlands Avenue, Coalpit Heath",BS36 2SF,WOE,10-Mar-24,Relet,51.526851,-2.472247,Major
"25 Poinsettia Way, Newent",GL18 1LB,Glouc,5-Mar-25,Relet,51.922383,-2.4046,Minor
"25 Shallowford Mews, Stafford",ST16 1HP,S&M,13-Feb-24,Relet,52.817044,-2.126924,Minor
"25 Siskin Road, Bicester",OX26 6UD,Central,5-Jan-25,Relet,51.895241,-1.139828,Minor
25 Topham Drive,WS12 0AA,S&M,12-Feb-25,New Build,52.711526,-1.974347,N/A
